stop_id,stop_name,stop_lat,stop_lon,Zipcode
10374,Gilman Dr & Myers Dr,32.876949,-117.235533,92093
10391,La Jolla Village Dr & Lebon Dr,32.870592,-117.223248,92122
10400,La Jolla Village Dr & Regents Rd,32.871465,-117.217861,92122
10772,Gilman Dr & Myers Dr,32.877183,-117.235829,92093
10793,La Jolla Village Dr & Regents Rd,32.871503,-117.218669,92037
11151,Nobel Dr & Lebon Dr,32.868525,-117.225289,92122
11538,N Torrey Pines Rd & Torrey Pines Scenic Dr,32.887475,-117.243837,92037
11539,N Torrey Pines Rd & Torrey Pines Golf Course,32.906751,-117.24399,92037
11541,N Torrey Pines Rd & Science Park Rd,32.901424,-117.242815,92037
11548,Gilman Dr & Eucalyptus Grove Ln,32.875781,-117.23921,92093
11875,N Torrey Pines Rd & Almahurst Row,32.880465,-117.244028,92037
11876,N Torrey Pines Rd & La Jolla Shores Dr,32.874901,-117.243796,92037
11877,N Torrey Pines Rd & Salk Institute Rd,32.885786,-117.243958,92037
11882,N Torrey Pines Rd & Scripps Clinic Drwy,32.894078,-117.24126,92037
11885,N Torrey Pines Rd & Genesee Av,32.891359,-117.241405,92037
11923,La Jolla Village Dr & Genesee Av,32.872645,-117.214513,92037
12310,N Torrey Pines Rd & La Jolla Shores Dr,32.874579,-117.243543,92093
12311,N Torrey Pines Rd & Torrey Pines Scenic Dr,32.886534,-117.243654,92093
12316,N Torrey Pines Rd & UCSD Northpoint Drwy,32.889558,-117.242483,92093
12320,Gilman Dr & Eucalyptus Grove Ln,32.875266,-117.238755,92093
12631,N Torrey Pines Rd & Muir College Dr,32.88135,-117.24369,92093
12634,N Torrey Pines Rd & Revelle College Dr,32.871606,-117.243423,92093
12639,N Torrey Pines Rd & Scripps Clinic Drwy,32.895275,-117.24111,92121
13024,Nobel Dr & La Jolla Village Square Drwy,32.867766,-117.231688,92037
13058,Nobel Dr & La Jolla Village Square Drwy,32.868011,-117.231658,92037
13141,N Torrey Pines Rd & John J Hopkins Dr,32.898471,-117.24182,92121
13171,Genesee Av & La Jolla Village Dr,32.872043,-117.214206,92122
20001,Broadway & Leslie Ln,33.148963,-117.090834,92026
20004,Brown St & Del Valle (Las Pulgas),33.350836,-117.411236,92055
20006,Access Rd & Px,33.222692,-117.395368,92055
20007,Vandegrift Bl & Ash Rd,33.231846,-117.389372,92055
20018,Division St & Grant St,33.196127,-117.370258,92054
20020,Division St & Country Club Ln,33.197026,-117.365342,92054
20024,Vandegrift Bl & Area 26,33.317869,-117.327032,92055
20025,Oceanside Bl & Industry St,33.197836,-117.350109,92054
20026,Bldg 22114 & 10th St,33.2943,-117.350633,92055
20027,Grand Av & Madison St,33.161625,-117.347768,92008
20030,Grand Av & Harding St,33.162834,-117.345663,92008
20032,Oceanside Bl & Camelot Dr,33.200654,-117.344325,92054
20038,Oceanside Blvd & Garrison St,33.201671,-117.336612,92054
20039,Mission Av & 3745 (Fireside St),33.223052,-117.334291,92058
20041,Mesa Dr & Garrison St,33.208641,-117.334341,92054
20045,Mission Av & El Camino Real,33.225368,-117.331348,92058
20047,Magnolia Av & Brady Cr (Jr High),33.15837,-117.330382,92008
20049,Sequoia & Angeles,33.347152,-117.322101,92058
20051,Carlsbad Village Dr & Santa Clara Way,33.170542,-117.316929,92010
20054,Carlsbad Village Dr & Victoria Av,33.166484,-117.305737,92010
20059,N River Rd & Redondo Dr,33.249539,-117.300802,92057
20061,Barnard Dr & Meadow Ln,33.186713,-117.297372,92056
20063,Encinitas Bl & I-5,33.04849,-117.289603,92024
20066,Santa Fe Dr & Summit Av,33.036132,-117.288374,92007
20067,Lake Bl & Thunder Dr,33.180104,-117.289004,92056
20068,Lake Bl & Del Cerro Av,33.178493,-117.283866,92056
20069,Santa Fe Dr & Santa Fe Plaza,33.03611,-117.283647,92007
20070,Sky Haven Ln & Lake Bl,33.177627,-117.280542,92056
20071,Encinitas Bl & Delphinium St,33.048643,-117.275794,92024
20075,W Vista Way & Hill Dr,33.192166,-117.271254,92083
20077,Encinitas Bl & Balour Dr,33.045188,-117.269256,92024
20081,Lomas Santa Fe Dr & Solana Hills Dr,32.995952,-117.259347,92075
20085,Los Angeles Dr & Georgia Ln,33.213122,-117.250904,92083
20088,Bobier Dr & N Santa Fe Av,33.221068,-117.246482,92083
20090,E Vista Way & Franklin Ln,33.207349,-117.235903,92084
20092,Williamston St & Vale Terrace Dr,33.209665,-117.229314,92084
20094,E Vista Way & Palomar Pl,33.2233,-117.225995,92084
20096,Arcadia Av & Oak Dr,33.224804,-117.222123,92084
20097,Poinsettia Av & Specialty Dr,33.140778,-117.219465,92081
20105,Mission Rd & Woodland Pkwy,33.140986,-117.137943,92069
20106,Mission Rd & Rancheros Dr,33.135833,-117.130105,92069
20109,El Norte Pkwy & Bennett Av,33.152741,-117.121914,92026
20110,El Norte Pkwy & Las Palmas Ln,33.149936,-117.117239,92026
20111,Mission Rd & Washington Av,33.12396,-117.105755,92029
20113,Country Club Ln & Eveningside Glen,33.15956,-117.095981,92026
20115,Valley Pkwy & Tulip St,33.117327,-117.094102,92025
20116,El Norte Pkwy & Las Villas Way,33.140738,-117.094707,92026
20121,Mission Av & Cedar St,33.134242,-117.074152,92025
20122,Washington Av & Date St,33.130396,-117.072584,92025
20123,Washington Av & Beech St,33.131846,-117.069958,92025
20127,Sunset Dr & Royal Crest Dr,33.095546,-117.062615,92025
20129,Hwy 78 & Citrus Av,33.108913,-117.04884,92025
20130,Valley Pkwy & Quarry Glen,33.138824,-117.048614,92027
20131,Hwy 78 & Summit Dr,33.106954,-117.044638,92025
20133,Valley Pkwy & Citrus Av (Vons),33.140212,-117.045562,92027
20134,Glenridge Rd & Mountain View Dr,33.12642,-117.044322,92027
20135,Valley Pkwy & Bear Valley Pkwy,33.143615,-117.038057,92027
20136,Valley Center Rd & Lilac Rd,33.222316,-117.036509,92082
20137,Valley Center Rd & Miller Rd,33.230823,-117.033388,92082
20138,Valley Center & Rock Hill Ranch Rd,33.228174,-117.006315,92082
20139,Hwy 78 & Old Milky Way,33.087836,-116.991716,92027
20140,Valley Center Rd & N Lake Wohlford Rd,33.228055,-116.976403,92082
20141,Valley Center Rd & Hwy 76,33.287359,-116.957588,92082
20142,Hwy 78 & Weekend Villa Rd,33.070031,-116.885581,92065
20155,Mission Av & Horne St,33.198369,-117.375219,92054
20157,Center Av & Horne St,33.195743,-117.373221,92054
20160,Oceanside Bl & Coast Hwy,33.183736,-117.368824,92054
20161,Mission Av & Brooks St,33.202004,-117.368325,92058
20162,Oceanside Blvd & Ditmar St,33.184833,-117.366999,92054
20164,Mission Av & Canyon Dr,33.204719,-117.363534,92054
20166,Mission Av & Carey Rd East,33.20729,-117.361223,92058
20167,Oceanside Blvd & Commerce St,33.191376,-117.360536,92054
20169,Vista Way & Coast Hwy,33.172241,-117.359108,92054
20170,Oceanside Blvd & State Tree Dr,33.192388,-117.35845,92054
20171,Mission Av & Mesa Dr,33.208643,-117.358703,92058
20176,Mission Av & Carolyn Cir,33.213448,-117.347994,92058
20177,E Av & 10th St,33.292766,-117.347938,92055
20178,Carlsbad Village Dr & Harding St,33.162493,-117.343551,92008
20180,Mission Av & Foussat Rd,33.217063,-117.3428,92058
20181,Vandegrift Bl & A St,33.304962,-117.342804,92055
20182,Chestnut Av & Harding St,33.15765,-117.34083,92008
20183,Mesa Dr & Wilcox St,33.209941,-117.341294,92054
20184,Mesa Dr & Sea Ridge Rd,33.211159,-117.340513,92054
20185,Mission Av & Copperwood Way,33.218799,-117.34034,92058
20186,Oceanside Bl & Foussat Rd,33.201653,-117.34013,92054
20189,Vista Way & Olson Way,33.183115,-117.336535,92054
20190,Marron Rd & Monroe St,33.17661,-117.336259,92008
20191,Mesa Dr & Mainsail Rd,33.210879,-117.33659,92054
20192,Carlsbad Village Dr & Valley St,33.167388,-117.335458,92008
20193,Tamarack Av & Pio Pico Dr,33.152761,-117.334873,92008
20194,Oceanside Blvd & El Camino Real E,33.201631,-117.330273,92056
20195,Vista Way & Via Esmarca,33.183108,-117.330868,92054
20196,Mesa Dr & Pear Tree Ln,33.208673,-117.331746,92056
20197,Mission Av & Plaza Real,33.226492,-117.329353,92058
20199,Vista Way & El Camino Real,33.182493,-117.325886,92056
20200,Mesa Dr & Pearwood Dr,33.210443,-117.326627,92056
20201,Marron Rd & El Camino Real,33.177764,-117.324718,92010
20202,Vista Way & Valley Glen Dr,33.182438,-117.32257,92056
20203,Sequoia & Angeles,33.347362,-117.322008,92058
20204,Mesa Dr & Vanilla Way,33.212414,-117.32136,92056
20206,Vista Way & Paseo De Laura,33.181151,-117.317269,92056
20207,Sequoia & Farrari,33.347063,-117.318766,92058
20210,N River Rd & Avenida Descanso,33.245169,-117.313988,92057
20211,Mission Av & Mission Gate Dr,33.229867,-117.312059,92057
20212,Oceanside Blvd & Rancho Del Oro Dr,33.203147,-117.310499,92056
20213,De Luz Rd & Wonson Dr,33.326655,-117.311745,92058
20216,De Luz Rd & Marine Dr,33.323687,-117.310823,92058
20217,De Luz Rd & Vandegrift Bl,33.320869,-117.310271,92055
20218,N River Rd & Calle Montecito,33.245376,-117.308235,92057
20219,Vandegrift Bl & 19th,33.317493,-117.309075,92055
20220,Mission Av & Old Grove Rd,33.229256,-117.305274,92057
20222,Carlsbad Village Dr & Chatham Rd,33.166515,-117.303433,92010
20226,Barnard Dr & Carr Dr,33.187928,-117.298279,92056
20227,Lake Bl & Esplanade St,33.179297,-117.291178,92056
20228,Waring Rd & Waring Ct,33.1878,-117.290337,92056
20229,Oceanside Blvd & Avenida Del Oro,33.205968,-117.288673,92056
20230,Oceanside Blvd & Collge Blvd,33.207218,-117.284237,92056
20232,Encinitas Bl & Westlake St,33.047559,-117.278942,92024
20233,W Vista Way & Emerald Dr,33.189141,-117.27885,92083
20236,Palomar Airport Rd & Yarrow Dr,33.125777,-117.274614,92011
20238,W Vista Way & Grapevine Rd,33.190658,-117.274527,92083
20240,Oceanside Blvd & Peacock Blvd,33.214492,-117.273002,92056
20242,Lomas Santa Fe Dr & Rios Av,32.992361,-117.268942,92075
20244,Oceanside Blvd & Temple Heights Dr,33.216885,-117.270114,92056
20245,N Santa Fe Av & Champlain St,33.239524,-117.270411,92056
20248,Encinitas Bl & Beechtree Dr,33.045972,-117.263959,92024
20251,Lomas Santa Fe Dr & Hilmen Dr,32.99552,-117.264254,92075
20252,Oceanside Blvd & 4927,33.218449,-117.268182,92056
20253,W Vista Way & Santa Clara Dr,33.194247,-117.265705,92083
20254,N Santa Fe Av & Darwin Dr,33.237237,-117.264762,92056
20255,W Vista Way & Copper Av,33.194472,-117.260836,92083
20258,Encinitas Bl & Cam Delas Flores,33.045606,-117.25466,92024
20262,W Vista Way & Melrose Dr,33.195461,-117.253979,92083
20267,Encinitas Bl & Village Park Way,33.044904,-117.248461,92024
20268,S Mission Rd & Ammunition Rd,33.370413,-117.251869,92028
20271,Encinitas Bl & Willowspring Dr,33.041357,-117.244143,92024
20273,Park Center Dr & Melrose Dr,33.139723,-117.243973,92081
20280,S Santa Fe Av & Guajome St,33.195952,-117.238227,92083
20281,La Costa Av & Rancho Santa Fe Rd,33.081175,-117.236569,92009
20285,E Vista Way & Townsite Dr,33.210196,-117.233955,92084
20287,S Santa Fe Av & Civic Center Dr,33.193511,-117.2338,92083
20288,La Costa Av & Calle Timiteo,33.079807,-117.231996,92009
20289,Arcadia Av & Anza Av,33.224899,-117.231611,92084
20291,E Vista Way & Vale Terrace Dr,33.211104,-117.231005,92084
20292,Camino De Los Coches & Via Callendo,33.078398,-117.22977,92009
20295,Vale Terrace Dr & Ponderosa Dr,33.208869,-117.22593,92084
20298,Via De La Valle & Caminito Porta Delgada,32.983777,-117.21932,92014
20299,Sycamore Av & Grand Av,33.155851,-117.224077,92081
20300,Poinsettia Av & Linda Vista Dr,33.137187,-117.222983,92081
20302,Shadowridge & Watson Way,33.166195,-117.22145,92083
20305,S Santa Fe Av & Woodland Dr,33.175723,-117.21267,92083
20306,Via De La Valle & Calzada Del Bosque,33.005343,-117.208389,92067
20307,S Santa Fe Av & Robelini Dr,33.173523,-117.209021,92083
20309,S Santa Fe Av & Azalea Dr,33.169104,-117.206423,92083
20311,Paseo Delicias & Via De La Valle,33.023524,-117.19862,92067
20312,S Santa Fe Av & Las Flores Dr,33.156551,-117.199869,92069
20314,Mission Rd & Rancho Santa Fe Rd,33.152295,-117.19516,92069
20315,Mission Rd & Pacific St,33.150397,-117.191895,92069
20316,Paseo Delicas & La Valle Plateada,33.030363,-117.190657,92067
20318,Del Dios Hwy & Via Cuatro Caminos,33.034742,-117.175648,92067
20321,Mission Rd & Marcos St,33.144362,-117.169827,92069
20322,Mission Rd & Pico Av,33.143261,-117.165548,92069
20323,Mission Rd & San Marcos Bl,33.142338,-117.161781,92069
20324,Mission Rd & Mulberry Dr,33.144715,-117.150022,92069
20328,El Norte Pkwy & Country Club Ln,33.154728,-117.125264,92026
20329,Mission Rd & Auto Park Wy,33.12999,-117.122157,92029
20331,El Norte Pkwy & Rees Rd,33.148448,-117.114688,92026
20332,Country Club Ln & La Brea St,33.157409,-117.114137,92026
20333,Mission Rd & Enterprise St,33.125995,-117.112197,92029
20336,Country Club Ln & Nutmeg St,33.157109,-117.109011,92026
20337,El Norte Pkwy & Nordahl Rd,33.147096,-117.108209,92026
20338,El Norte Pkwy & Seven Oaks Rd,33.145903,-117.102381,92026
20339,Valley Pkwy & Auto Park Wy,33.112327,-117.102255,92029
20340,Mission Av & Metcalf St,33.125387,-117.100961,92025
20343,Country Club Ln & Village Rd,33.159029,-117.099937,92026
20344,El Norte Pkwy & Iris Ln (525),33.144548,-117.099128,92026
20345,Lincoln Av & Eden Pl,33.130197,-117.098052,92026
20346,Lincoln Av & Avocado Av,33.13092,-117.095684,92026
20348,El Norte Pkwy & Morning View Dr,33.143701,-117.097169,92026
20349,El Norte Pkwy & Escondido Bl,33.139189,-117.09226,92026
20353,2nd Av & Escondido Bl,33.119484,-117.083166,92025
20355,Washington Av & Juniper St,33.127594,-117.081472,92025
20357,2nd Av & Broadway,33.120835,-117.080486,92025
20360,Mission Av & Fig St,33.133074,-117.076624,92025
20361,Washington Av & Grape St,33.129131,-117.076521,92025
20365,Grand Av & Fig St,33.12496,-117.072559,92025
20367,Lincoln Av & Harding St,33.140737,-117.069891,92027
20368,Grand Av & Date St,33.125917,-117.069514,92025
20372,Valley Pkwy & Ash St,33.130752,-117.066244,92027
20375,Grand Av & Ash St,33.12741,-117.064553,92027
20376,Grand Av & Ohio Av,33.128193,-117.062849,92027
20377,Grand Av & Rose St,33.130959,-117.056838,92027
20378,Grand Av & Fernwood Av,33.131739,-117.05514,92027
20379,Grand Av & Foxdale Pl,33.133562,-117.051207,92027
20380,Valley Pkwy & Midway Dr,33.137664,-117.051078,92027
20383,Valley Center Rd & Calle De Vista,33.218905,-117.033713,92082
20384,Valley Pkwy & Hidden Trails Rd,33.150428,-117.032665,92027
20385,Valley Center Rd & Lake Wohlford Rd,33.159548,-117.030821,92027
20386,Valley Center Rd & Cole Grade Rd,33.231125,-117.023569,92082
20387,Hwy 78 & Safari Park Outside Gate,33.094152,-117.002314,92027
20388,Valley Center Rd & Queensbridge Rd,33.228216,-116.995725,92082
20389,Valley Center Rd & N Paradise Creek Ln,33.257131,-116.957947,92082
20393,Vandegrift Bl & Stuart Mesa Rd,33.233738,-117.388596,92055
20399,Center Av & Horne St,33.195749,-117.373483,92054
20402,Mission Av & San Diego St,33.201945,-117.368844,92058
20404,Division St & Brooks St,33.196811,-117.366906,92054
20406,Oceanside Bl & Vine St,33.188432,-117.364625,92054
20409,Mission Av & Amick St,33.208791,-117.359048,92058
20413,Bldg 22114 & 9th St,33.293705,-117.352282,92055
20416,Mesa Dr & Barnwell St,33.205035,-117.348019,92054
20417,E St & 10th St,33.292646,-117.348125,92055
20419,Carlsbad Village Dr & Harding St,33.162401,-117.343972,92008
20421,Chestnut Av & Harding St,33.15775,-117.340897,92008
20422,Carlsbad Village Dr & Pio Pico Dr (Library),33.164698,-117.340007,92008
20425,Vista Way & Olson Way,33.183315,-117.336512,92054
20426,Tamarack Av & Pio Pico Dr,33.15296,-117.334919,92008
20431,Mission Av & El Camino Real,33.22659,-117.330058,92058
20432,Vandegrift Bl & Rattlesnake Canyon Rd,33.317745,-117.327384,92055
20433,Vista Way & El Camino Real,33.18299,-117.326216,92056
20434,Marron Rd & El Camino Real,33.177897,-117.325695,92010
20441,Mission Av & Old Grove Rd,33.229234,-117.305937,92057
20448,Barnard Dr & Meadow Ln,33.186618,-117.297001,92056
20451,Waring Rd & Waring Ct,33.187922,-117.290862,92056
20452,Santa Fe Dr & Arden Dr,33.036251,-117.287938,92024
20453,Encinitas Blvd & Essex Heights,33.047779,-117.283323,92024
20454,Lake Bl & Surf Pl,33.178622,-117.283904,92056
20455,W Vista Way & Cedar Rd,33.186474,-117.283248,92083
20459,W Vista Way & Emerald Dr,33.189333,-117.278846,92083
20463,W Vista Way & Grapevine Rd,33.190375,-117.275525,92083
20466,Encinitas Bl & Via Cantebria,33.046061,-117.267706,92024
20478,Vista Village Dr & Citrus Av,33.203776,-117.241267,92084
20480,Camino De Los Coches & Calle Timiteo,33.075566,-117.236395,92009
20482,La Costa Av & Rancho Santa Fe Rd,33.081352,-117.236382,92009
20485,S Santa Fe Av & Civic Center Dr,33.193497,-117.233178,92084
20486,Arcadia Av & Anza Av,33.22504,-117.232072,92084
20487,Eucalyptus & Avalon Dr,33.201691,-117.232698,92084
20488,Vale Terrace Dr & E Vista Way,33.210874,-117.229625,92084
20490,S Santa Fe Av & Service Pl,33.188356,-117.225749,92084
20491,Beaumont Dr & Eucalyptus Av,33.19752,-117.22489,92084
20493,Coventry Rd & Beaumont Dr,33.20179,-117.22331,92084
20494,S Santa Fe & Montgomery Dr,33.183167,-117.219231,92084
20495,S Santa Fe Av & York Dr,33.175504,-117.2121,92083
20496,Mission Rd & Rancho Santa Fe Rd,33.152883,-117.195265,92069
20497,Mission Rd & Pacific St,33.150524,-117.191766,92069
20498,Mission Rd & Pico Av,33.143446,-117.165539,92069
20499,Country Club Ln & El Norte Pkwy,33.155764,-117.12504,92026
20500,El Norte Pkwy & Rees Rd,33.149171,-117.115397,92026
20506,El Norte Pkwy & Morning View Dr,33.141719,-117.094813,92026
20513,Grand Av & Valley Bl,33.124297,-117.075499,92025
20514,Grand Av & Fig St,33.12507,-117.07257,92025
20515,Washington Av & Date St,33.130749,-117.072058,92025
20516,Grand Av & Ash St,33.127501,-117.06477,92027
20517,Washington Av & Beech St,33.132005,-117.06994,92025
20518,Grand Av & Beech St,33.126873,-117.066812,92025
20519,Washington Av & Harding St,33.134367,-117.06599,92027
20521,Washington Av & Mills St,33.136429,-117.062553,92027
20522,Valley Pkwy & Midway Dr,33.138384,-117.050306,92027
20523,Hwy 78 & Summit Dr,33.107457,-117.044995,92027
20524,Glenridge Rd & Mountain View Dr,33.126444,-117.044547,92027
20525,Valley Center Rd & Lake Wohlford Rd,33.159893,-117.03099,92027
20526,Hwy 78 & Safari Park Outside Gate,33.094026,-117.001309,92027
20532,Vandegrift Bl & Stuart Mesa Rd,33.232295,-117.389306,92055
20538,Mission Av & Ditmar St,33.19677,-117.37821,92054
20540,Mission Av & Clementine St,33.1979,-117.376354,92054
20545,Division St & Grant St,33.196222,-117.370429,92054
20546,Oceanside Blvd & Ditmar St,33.184792,-117.367504,92054
20547,Mission Av & Canyon Dr,33.204136,-117.364743,92058
20550,Mission Av & Carey Rd,33.206778,-117.362056,92058
20551,Oceanside Blvd & State Tree Dr,33.192216,-117.359315,92054
20553,Oceanside Blvd & 1906,33.193684,-117.35626,92054
20556,Oceanside Blvd & Crouch St,33.19488,-117.354128,92054
20557,Vista Way & Lincoln St,33.174824,-117.355131,92054
20559,Oceanside Bl & Hoover St,33.198046,-117.350206,92054
20561,Grand Av & Roosevelt St,33.161196,-117.348898,92008
20562,Mission Av & Airport Rd,33.213117,-117.348845,92058
20563,Oceanside Bl & Macdonald St,33.199297,-117.347691,92054
20564,Mesa Dr & Parnassus Cir (S),33.206617,-117.347189,92054
20565,Mesa Dr & Parnassus Cir (N),33.207778,-117.346656,92054
20567,Mission Av & Roymar Rd,33.215142,-117.346002,92058
20568,Oceanside Bl & Barnwell St,33.200541,-117.345052,92054
20569,Mesa Dr & Foussat Rd,33.209165,-117.343997,92054
20570,Mission Av & Foussat Rd,33.216603,-117.343919,92058
20575,Oceanside Blvd & Edgehill Ln,33.201852,-117.340417,92054
20579,Oceanside Blvd & Garrison St,33.201857,-117.337734,92054
20580,Mesa Dr & Mainsail Rd,33.211561,-117.337107,92054
20581,Carlsbad Village Dr & Valley St,33.167475,-117.335538,92008
20582,Mission Av & Fireside St,33.222673,-117.335262,92058
20583,Mesa Dr & El Camino Real,33.208755,-117.334008,92054
20585,Vista Way & Via Esmarca,33.183364,-117.331826,92054
20587,Mission Av & El Camino Real,33.2248,-117.332396,92058
20588,Mesa Dr & Pear Tree Ln,33.209307,-117.330283,92056
20589,Magnolia Av & Brady Circle,33.158578,-117.330276,92008
20590,El Camino Real & Coco Palms Dr,33.229151,-117.330129,92058
20591,El Camino Real & Laguna Vista MHP (Gate),33.229979,-117.328085,92058
20592,Vista Way & Target,33.183344,-117.32949,92054
20593,Mesa Dr & Pearwood Dr,33.210516,-117.326723,92056
20595,Vandegrift Bl & Santa Margarita Rd,33.321277,-117.325404,92055
20596,Vista Way & Valley Glen Dr,33.18271,-117.323006,92056
20597,Mesa Dr & Vanilla Way,33.212801,-117.321232,92056
20599,Carlsbad Village Dr & Appian Rd,33.17064,-117.317417,92010
20601,Mesa Dr & Rancho Del Oro Dr,33.214505,-117.318395,92056
20602,Vista Way & Paseo De Laura,33.181585,-117.31812,92056
20603,N River Rd & Festival Dr,33.24546,-117.318197,92057
20604,Rancho Del Oro Dr & Mesa Dr,33.215094,-117.317911,92057
20605,N River Rd & Avenida Descanso,33.245437,-117.31506,92057
20608,N River Rd & Calle Montecito,33.245481,-117.309249,92057
20613,Carlsbad Village Dr & Victoria Av,33.166703,-117.305819,92010
20618,Carlsbad Village Dr & Tamarack Av,33.167198,-117.301194,92010
20622,Barnard Dr & Carr Dr,33.188279,-117.298404,92056
20625,Waring Rd & Camarillo Av,33.186761,-117.294235,92056
20628,Encinitas Bl & I-5,33.048756,-117.289701,92024
20631,Thunder Dr & Tri-City Medical,33.18625,-117.288365,92056
20632,Lake Bl & Thunder Dr,33.180189,-117.288394,92056
20633,Oceanside Blvd & College Blvd,33.207196,-117.285942,92056
20634,Lake Bl & Twilight Ln,33.178293,-117.281726,92056
20635,Oceanside Bl & Arroyo Av,33.208605,-117.281851,92056
20636,Encinitas Bl & Quail Gardens Dr,33.047711,-117.279104,92024
20637,W Vista Way & Emerald Dr,33.188312,-117.280572,92083
20639,Encinitas Bl & Delphinium St,33.048892,-117.276022,92024
20642,Oceanside Blvd & Beverly Glen Dr,33.212685,-117.275694,92056
20643,N Santa Fe Av & Mesa Dr,33.241779,-117.275939,92056
20644,Oceanside Blvd & Peacock Blvd,33.214209,-117.273807,92056
20647,Lomas Santa Fe Dr & Granados Av,32.992883,-117.268755,92075
20649,W Vista Way & Hill Dr,33.192136,-117.271681,92083
20650,Oceanside Blvd & Temple Heights Dr,33.216558,-117.270972,92056
20651,N Santa Fe Av & Champlain St,33.239864,-117.271096,92056
20654,Lomas Santa Fe Dr & Nardo Av,32.995257,-117.265884,92075
20658,Palomar Airport Rd & El Camino Real,33.129514,-117.267885,92008
20660,W Vista Way & Santa Clara Dr,33.194155,-117.266353,92083
20662,N Santa Fe Av & Darwin Dr,33.2379,-117.265016,92056
20664,Lomas Santa Fe Dr & Solana Hills Dr,32.996228,-117.259585,92075
20665,W Vista Way & Copper Av,33.194624,-117.262105,92083
20669,Encinitas Bl & Turner Av,33.045889,-117.255204,92024
20672,W Vista Way & Hwy 78 Wb On Ramp,33.194808,-117.256965,92083
20679,W Vista Way & Valencia Dr,33.196799,-117.251585,92083
20681,Encinitas Bl & Village Park Way,33.04533,-117.249093,92024
20686,Vista Village Dr & Camino Corto,33.199928,-117.247646,92083
20687,Encinitas Bl & Willowspring Dr,33.042507,-117.24473,92024
20690,Bobier Dr & N Santa Fe Av,33.22127,-117.245644,92083
20691,Encinitas Bl & Rancho Santa Fe Rd,33.037696,-117.239347,92024
20693,S Santa Fe Av & Terrace Dr,33.196947,-117.239229,92084
20694,Vista Village Dr & Hillside Ter,33.205112,-117.23756,92084
20695,E Vista Way & Franklin Ln,33.207226,-117.236209,92084
20696,E Vista Way & Townsite Dr,33.209153,-117.235469,92084
20697,La Costa Av & Calle Timiteo,33.079664,-117.232001,92009
20699,E Vista Way & Anza Av,33.211174,-117.232452,92084
20700,S Santa Fe Av & Alta Calle,33.192457,-117.230244,92084
20701,Eucalyptus Av & Alestar St,33.200676,-117.229662,92084
20702,Via De La Valle & El Camino Real (N),32.983402,-117.226141,92014
20706,E Vista Way & Palomar Pl,33.22296,-117.226269,92084
20707,Arcadia Av & E Vista Way,33.225,-117.227255,92084
20709,S Santa Fe Av & Cypress Dr,33.18565,-117.223859,92084
20710,Poinsettia Av & Island View Way,33.136275,-117.223745,92081
20711,Poinsettia Av & Specialty Dr,33.140962,-117.219544,92081
20712,Coventry Rd & Lynmar Ln,33.203192,-117.219739,92084
20713,Via De La Valle & Cancha De Golf,32.994376,-117.212255,92067
20714,Shadowridge Dr & Sycamore Av,33.164993,-117.217243,92081
20715,Via De La Valle & Calzada Del Bosque,33.004849,-117.208622,92067
20716,S Santa Fe Av & Palmyra Dr,33.171347,-117.207138,92084
20717,S Santa Fe Av & Bosstick Bl,33.159902,-117.203507,92069
20718,Paseo Delicias & La Fremontia,33.023514,-117.198855,92067
20719,S Santa Fe Av & Las Flores Dr,33.157196,-117.200668,92069
20721,Rancho Santa Fe Rd & Capalina Rd,33.152435,-117.197111,92069
20722,Paseo Delicas & El Montevideo,33.030024,-117.1911,92067
20723,Mission Rd & Crusaders Way,33.145786,-117.175114,92069
20725,Mission Rd & Woodward St,33.142407,-117.160992,92069
20727,Mission Rd & Mulberry Dr,33.14493,-117.150498,92069
20728,Mission Rd & Richland Rd,33.14234,-117.140434,92069
20730,Mission Rd & Avenida Chapala,33.136939,-117.131128,92069
20731,Mission Rd & Auto Park Wy,33.131079,-117.123406,92029
20732,El Norte Pkwy & Bennett Av,33.152872,-117.121632,92026
20735,Country Club Ln & La Brea St,33.157684,-117.114048,92026
20736,Harmony Grove Rd & Princess Kyra Pl,33.110449,-117.113941,92029
20737,Country Club Ln & Nutmeg St,33.157407,-117.109477,92026
20738,El Norte Pkwy & Nutmeg St,33.147095,-117.106432,92026
20740,Valley Pkwy & Auto Park Wy,33.112715,-117.10248,92029
20741,Mission Av & Metcalf St,33.125347,-117.101866,92025
20742,Country Club Ln & Village Rd,33.159223,-117.100143,92026
20743,El Norte Pkwy & Iris Ln,33.144663,-117.0988,92026
20744,Country Club Ln & Eastridge Ln,33.159635,-117.096453,92026
20747,El Norte Pkwy & Seven Oaks Rd,33.146054,-117.102113,92026
20748,Country Club Ln & Iris Ln,33.160647,-117.094117,92026
20752,El Norte Pkwy & Broadway,33.139749,-117.089977,92026
20754,Valley Pkwy & Escondido Bl,33.120823,-117.085788,92025
20757,Washington Av & Juniper St,33.127834,-117.081272,92025
20758,Mission Av & Gamble St,33.131726,-117.081312,92025
20760,Mission Av & Fig St,33.132721,-117.078084,92026
20761,Washington Av & Grape St,33.129203,-117.076852,92025
20767,Grand Av & Date St,33.125943,-117.069779,92025
20771,El Norte Pkwy & Rimrock Dr,33.149456,-117.066246,92027
20776,Grand Av & Gayland St,33.132975,-117.052721,92027
20777,Grand Av & Midway Dr,33.134118,-117.050284,92027
20782,Valley Pkwy & Citrus Av,33.140911,-117.04484,92027
20783,Hwy 78 & Highgrove Dr,33.102977,-117.036713,92027
20784,Valley Pkwy & Bear Valley Pkwy,33.143401,-117.03943,92027
20785,Valley Center Rd & Lilac Rd,33.222112,-117.036746,92082
20786,Valley Pkwy & Las Brisas Dr,33.147936,-117.034367,92027
20787,Valley Center Rd & Queensbridge Rd,33.228383,-116.996232,92082
20788,Hwy 78 & Old Milky Way,33.088323,-116.991603,92027
20789,Valley Center Rd & Thundernut Ln,33.228291,-116.9761,92082
20790,Hwy 76 & Valley Center Rd,33.288655,-116.960808,92082
20791,Hwy 78 & Indian Oaks Rd,33.072209,-116.90074,92065
20792,Hwy 78 & Weekend Villa Rd,33.07027,-116.885106,92065
20799,Santa Fe Av & 5th St,33.216205,-117.392664,92055
20800,Vandegrift Bl & Commissary,33.227,-117.391945,92055
20801,Santa Fe Av & Harbor Dr,33.207928,-117.390539,92055
20802,Santa Fe Av & Nautilus St,33.212586,-117.390969,92058
20806,Coast Hwy & Surfrider Way,33.199493,-117.382689,92054
20820,Country Club Ln & Division St,33.19761,-117.365258,92054
20821,Coast Hwy & Whaley St,33.176905,-117.363731,92054
20823,Coast Hwy & Vista Way,33.172211,-117.359784,92054
20827,Carlsbad Bl & Pine Ave,33.155908,-117.350965,92008
20828,Mesa Dr & Hoover St,33.20418,-117.350332,92054
20829,Carlsbad Bl & Maple Ave,33.152392,-117.349205,92008
20831,Mesa Dr & Parnassus Cir,33.20662,-117.347018,92054
20833,Mesa Dr & Cottingham St,33.209117,-117.344848,92054
20837,Fireside St & Heritage St,33.225607,-117.338469,92058
20838,Carlsbad Bl & Tierra Del Oro St,33.133634,-117.336417,92008
20844,Vista Bella & Vista Oceana,33.216932,-117.330432,92057
20846,El Camino Real & Camino Town,33.185664,-117.328287,92054
20847,Monroe St & Chestnut Av,33.161901,-117.326649,92008
20848,El Camino Real & Marron Rd,33.178204,-117.32683,92008
20851,Avenida De Anita & Avenida De Louisa,33.175283,-117.322229,92010
20852,Avenida De Anita & Via Naranja,33.174634,-117.321249,92010
20853,Avenida De Anita & Via Esparto,33.172702,-117.32067,92010
20858,Carlsbad Bl & La Costa Av,33.084424,-117.31099,92011
20861,De Luz Rd & Pusan,33.327166,-117.312102,92055
20862,De Luz Rd & Marine Dr,33.323628,-117.31096,92055
20863,De Luz Rd & Vandegrift Bl,33.321005,-117.310374,92055
20864,Vandegrift Bl & 16th St (Area 14),33.313802,-117.309996,92055
20867,Highway 101 & El Portal St,33.056099,-117.298058,92024
20872,Hwy 101 & H St,33.04095,-117.2933,92024
20874,Hwy 101 & K St,33.036524,-117.292332,92024
20877,El Camino Real & Jackspar Dr,33.146616,-117.289981,92008
20878,Thunder Dr & Vista Way,33.185093,-117.288298,92056
20879,Thunder Dr & Altura Dr,33.192117,-117.288266,92056
20880,Hwy 101 & San Elijo State Beach,33.02476,-117.285977,92007
20881,Saxony Rd & Ezee St,33.059495,-117.285489,92024
20890,Emerald Dr & Candia Ct,33.201871,-117.279572,92083
20891,Sunset Dr & Sky Haven Ln,33.184209,-117.279028,92081
20892,N Santa Fe Av & Alamosa Park Dr,33.242746,-117.278354,92057
20895,Hwy 101 & Estrella St,32.994948,-117.272562,92075
20897,Hwy 101 & Dahlia Dr,32.988321,-117.271003,92075
20898,Hwy 101 & Via De La Valle,32.980405,-117.269259,92075
20899,Camino Del Mar & 25th St,32.969275,-117.268018,92014
20900,El Camino Real & La Costa Av,33.084852,-117.268499,92009
20901,El Camino Real & Arenal Rd,33.094933,-117.267864,92011
20903,Camino Del Mar & 15th St,32.959836,-117.265439,92014
20904,El Camino Real & Aviara Pkwy,33.102746,-117.266771,92011
20905,Camino Del Mar & 13th St,32.95737,-117.264661,92014
20906,El Camino Real & Levante St,33.07814,-117.265555,92009
20907,Camino Del Mar & 9th St,32.953629,-117.263213,92014
20908,Camino Del Mar & 4th St,32.949149,-117.261518,92014
20910,El Camino Real & Encinitas Blvd,33.044644,-117.259785,92024
20912,El Camino Real & Santa Fe Dr,33.039133,-117.259581,92024
20916,Melrose Dr & Sunset Dr,33.179114,-117.253583,92081
20917,Melrose Dr & Branding Iron Cir,33.181793,-117.252628,92081
20918,North Dr & East Dr,33.214102,-117.252354,92083
20919,N Santa Fe Av & Osborne St,33.234468,-117.253786,92083
20926,N Santa Fe Av & Pond Pl,33.224305,-117.246513,92083
20928,N Santa Fe Av & Orange St,33.205271,-117.245127,92083
20929,N Santa Fe Av & East Dr,33.214275,-117.245042,92083
20931,S Mission Rd & Winterhaven Rd,33.346132,-117.242385,92028
20932,Melrose Dr & Green Oak Rd,33.155512,-117.241872,92081
20933,S Mission Rd & Big Oak Ranch Rd,33.338546,-117.238352,92028
20934,Rancho Santa Fe Rd & 9th St,33.048229,-117.233968,92024
20937,Anza Av & Bobier Dr,33.219717,-117.233778,92084
20938,S Mission Rd & Hellers Bend (North),33.324208,-117.235281,92028
20939,Anza Av & Monterey Ln,33.221626,-117.232746,92084
20941,E Vista Way & Hutchison St,33.250302,-117.230342,92084
20942,E Vista Way & E Bobier Dr,33.216647,-117.22676,92084
20943,E Vista Way & Arcadia Av,33.226019,-117.226283,92084
20944,E Vista Way & Osborne St,33.23854,-117.226351,92084
20945,La Mirada Dr & Commerce Wy,33.150407,-117.222668,92081
20946,Oak Dr & Foothill Dr,33.216685,-117.221913,92084
20947,Rancho Santa Fe Rd & Somerset Pl,33.128981,-117.211233,92078
20948,Rancho Santa Fe Rd & 1st St,33.137123,-117.205028,92078
20949,Rancho Santa Fe Rd & Linda Vista Dr,33.140732,-117.20323,92078
20962,Escondido Bl & Mission Av,33.128255,-117.08914,92025
20964,Broadway & Lincoln Av,33.133972,-117.08708,92026
20967,Pala Mission Rd & Portillo Rd,33.364953,-117.084209,92059
20971,Escondido Bl & 15th Av,33.1074,-117.075128,92025
20972,Escondido Bl & Felicita Av,33.10521,-117.073658,92025
20976,Hwy 76 & Lilac Rd,33.364021,-117.062397,92059
20978,Bear Valley Pkwy & Kit Carson Park,33.078231,-117.057425,92025
20980,Citrus Av & Citron Pl,33.13308,-117.039209,92027
20981,Hwy 78 & San Pasqual Rd,33.097807,-117.020663,92027
20982,Hwy 76 & El Senedero Dr,33.335874,-117.005488,92061
20983,Hwy 76 & Pauma Valley Dr,33.302974,-116.978077,92061
20991,Stuart Mesa & Vaughn,33.252679,-117.404834,92058
20992,Stuart Mesa & Bloom,33.249042,-117.403107,92058
20996,Coast Hwy & Civic Center Dr,33.197286,-117.38082,92054
20999,Coast Hwy & Topeka St,33.193733,-117.37783,92054
21003,Coast Hwy & Washington Av,33.19053,-117.375124,92054
21005,Coast Hwy & Wisconsin Av,33.188381,-117.373356,92054
21008,Coast Hwy & West St,33.186416,-117.371734,92054
21013,Coast Hwy & Oceanside Blvd,33.18335,-117.369212,92054
21015,Coast Hwy & Cassidy St,33.174859,-117.362015,92054
21019,Mesa Dr & Mission Av,33.208108,-117.358652,92054
21023,Mesa Dr & Crouch St,33.205741,-117.353723,92054
21024,9th St & Vandegrift Bl,33.295368,-117.353596,92055
21031,Mesa Dr & Barnwell St,33.204694,-117.34805,92054
21032,Carlsbad Bl & Tamarack Av,33.147366,-117.345393,92008
21033,Harding St & Carlsbad Village Dr,33.161521,-117.344381,92008
21038,Harding St & Pine Av,33.159434,-117.342688,92008
21042,Marron Rd & Jefferson St,33.177515,-117.34035,92008
21043,Pio Pico Dr & Chestnut Av,33.157698,-117.33908,92008
21044,Pio Pico Dr & Magnolia Av,33.154866,-117.337591,92008
21046,Fireside St & Parkside Dr,33.227742,-117.338184,92058
21050,Carlsbad Bl & Cerezo Dr,33.128419,-117.332693,92008
21051,El Camino Real & Mesa Dr,33.208363,-117.333615,92054
21053,El Camino Real & Oceanside Bl,33.200819,-117.331779,92054
21054,Carlsbad Bl & Solamar Dr,33.120896,-117.327305,92011
21055,El Camino Real & Los Arbolitos Bl,33.227731,-117.331245,92058
21058,El Camino Real & Mission Av,33.22535,-117.331274,92058
21059,El Camino Real & Basel St,33.190631,-117.328263,92054
21060,El Camino Real & Fire Mountain Dr,33.192256,-117.328221,92054
21066,El Camino Real & Hosp Way,33.174733,-117.325344,92008
21067,Douglas Dr & El Camino Real,33.229851,-117.326191,92058
21068,El Camino Real & Carlsbad Village Dr,33.171425,-117.322674,92008
21070,Avenida De Anita & Flower Fields Way,33.177031,-117.322686,92010
21071,Douglas Dr & N River Rd,33.244894,-117.322785,92058
21072,El Camino Real & Chestnut Av,33.163267,-117.319798,92008
21073,Rancho Del Oro Dr & San Ramon Dr,33.222142,-117.320378,92057
21074,Carlsbad Bl & Poinsettia Ln,33.101378,-117.318157,92011
21076,Rancho Del Oro Dr & Oregano Way,33.217677,-117.319274,92057
21078,El Camino Real & Tamarack Av,33.153614,-117.312101,92008
21079,Vandegrift Bl & 11th St,33.299424,-117.313258,92055
21080,Vandegrift Bl & 4th St,33.293749,-117.312591,92055
21082,Vandegrift Bl & Mcx Rd,33.302266,-117.312648,92055
21083,El Camino Real & Kelly Dr,33.152087,-117.30987,92008
21085,Hwy 101 & La Costa Av,33.081404,-117.308163,92024
21086,Rancho Del Oro Rd & Las Tiendas Way,33.183793,-117.31105,92056
21087,Vandegrift Bl & 14th St,33.307231,-117.311596,92055
21090,Rancho Del Oro Dr & Tournament Dr,33.186579,-117.309181,92056
21091,Rancho Del Oro Rd & Trieste Way,33.189248,-117.308571,92056
21093,Hwy 101 & Grandview St,33.075877,-117.306222,92024
21098,Hwy 101 & Phoebe St,33.069046,-117.303944,92024
21102,Hwy 101 & Leucadia Blvd,33.063985,-117.30227,92024
21108,Vandegrift Bl & Barnett Cir,33.284752,-117.302105,92055
21109,N River Rd & Redondo Dr,33.249103,-117.301492,92057
21114,Vandegrift Bl & Gold Dr,33.25783,-117.299025,92057
21115,Vandergrift Blvd & Parker St,33.261075,-117.2984,92057
21116,Vandergrift Blvd & Castellano Dr,33.264428,-117.297804,92057
21119,Vandegrift Bl & Douglas Dr,33.273012,-117.29629,92057
21120,College Blvd & Adams St,33.248971,-117.294961,92057
21123,Vulcan Av & J St,33.038545,-117.291676,92024
21124,College Blvd & Via Cupeno,33.246292,-117.290865,92057
21125,Thunder Dr & College Bl,33.198946,-117.28826,92056
21126,Thunder Dr & Marvin St,33.194668,-117.288279,92056
21127,Saxony Rd & Saxony Ln,33.052379,-117.285655,92024
21128,El Camino Real & Sunny Creek Rd,33.144605,-117.286051,92008
21129,Saxony Rd & Leucadia Bl,33.064586,-117.285224,92024
21131,Saxony Rd & Puebla St,33.061684,-117.285374,92024
21133,Sky Haven Ln & Sundown Ln,33.180351,-117.280156,92056
21134,Sky Haven Ln & Zenith Ln,33.178526,-117.280183,92056
21135,Emerald Dr & Hacienda Dr,33.186218,-117.279636,92081
21141,Hwy 101 & Solana Vista Dr,32.997862,-117.27404,92075
21142,Yarrow Dr & Palomar Airport Rd,33.124855,-117.275042,92011
21144,Hwy 101 & Plaza St,32.99136,-117.271692,92075
21145,Camino Del Mar & 29th St,32.972376,-117.268658,92014
21147,El Camino Real & Dove Ln,33.104981,-117.267149,92011
21149,El Camino Real & Town Center Dr,33.064595,-117.262622,92024
21150,N Torrey Pines Rd & Torrey Pines State Beach,32.935782,-117.260929,92014
21151,El Camino Real & Mountain Vista Dr,33.051497,-117.260948,92024
21161,S Mission Rd & Clemmens Ln,33.368699,-117.250952,92028
21164,S Mission Rd & O' Hearn Dr,33.365772,-117.249943,92028
21165,Melrose Dr & Buena Vista Dr,33.166667,-117.247238,92081
21166,S Mission Rd & Rocky Crest Rd,33.362569,-117.249439,92028
21170,Melrose Dr & Longhorn Dr,33.163662,-117.2445,92081
21171,N Santa Fe Av & California Av,33.207125,-117.245112,92083
21173,N Santa Fe Av & Los Angeles Dr,33.211115,-117.245085,92083
21174,N Santa Fe Av & Bobier Dr,33.22073,-117.245017,92083
21175,N Santa Fe Av & Indian Rock Rd,33.217192,-117.245023,92083
21177,Melrose Dr & Dawson Dr,33.149826,-117.242251,92081
21178,Melrose Dr & Shadowridge Dr,33.161112,-117.242115,92081
21180,Melrose Dr & Sycamore Av,33.144864,-117.241536,92081
21181,Rancho Santa Fe Rd & Calle Barcelona,33.071883,-117.243146,92009
21183,Rancho Santa Fe Rd & Olive Crest Dr,33.057537,-117.235572,92024
21184,Hwy 76 & North River Rd,33.266976,-117.237136,92003
21185,S Mission Rd & Green Canyon Rd,33.334647,-117.236575,92028
21187,Camino De Los Coches & Via Callendo,33.077986,-117.230036,92009
21188,Business Park Dr & Liberty Way,33.137578,-117.230039,92081
21191,E Vista Way & Oak Dr,33.213141,-117.228842,92084
21192,S Mission Rd & 4719,33.305837,-117.227333,92028
21193,Rancho Santa Fe Rd & Melrose Dr,33.106584,-117.22574,92009
21194,E Vista Way & Strawberry Hill Ln,33.243532,-117.226593,92084
21197,E Vista Way & Old Taylor St,33.230034,-117.226298,92084
21198,Hwy 76 & Olive Hill Rd,33.288546,-117.225837,92003
21199,S Mission Rd & Hwy 76,33.294879,-117.222977,92003
21201,Oak Dr & Monte Mar Rd,33.218347,-117.221921,92084
21202,Oak Dr & Palomar Pl,33.222695,-117.221923,92084
21203,Sycamore Av & Watson Way,33.161114,-117.219881,92081
21204,Rancho Santa Fe Rd & Lake Ridge Rd,33.1222,-117.218896,92078
21205,La Mirada Dr & Ash St,33.148923,-117.21835,92081
21206,Sycamore Av & Shadowridge Dr,33.164204,-117.21728,92083
21210,Rancho Santa Fe Rd & San Marcos Bl,33.130004,-117.210106,92078
21213,Rancho Santa Fe Rd & Descanso Av,33.14818,-117.199453,92078
21232,Quince St & Mission Av,33.127113,-117.093245,92025
21233,Broadway & Village Rd,33.157888,-117.092549,92026
21234,Quince St & Washington Av,33.124854,-117.092271,92025
21236,Broadway & Vista Av,33.153046,-117.091794,92026
21237,Broadway & Leslie Ln,33.148205,-117.090985,92026
21238,Quince St & Norlak Av,33.120804,-117.090073,92025
21239,Broadway & Bud Quade Way,33.143297,-117.090196,92026
21240,Broadway & El Norte Pkwy,33.139,-117.089322,92026
21241,Broadway & 1125,33.136294,-117.088093,92026
21246,Broadway & Washington Av,33.126507,-117.083796,92025
21247,Escondido Bl & 2nd Av,33.119088,-117.08341,92025
21249,Escondido Bl & 6th Av,33.115674,-117.080993,92025
21250,Escondido Bl & 9th Av,33.112687,-117.078881,92025
21254,Escondido Bl & 13th Av,33.10921,-117.076409,92025
21271,Bear Valley Pkwy & Las Palmas Av,33.085735,-117.057302,92025
21273,Midway Dr & Mission Av,33.144295,-117.056271,92027
21274,Midway Dr & Washington Av,33.141107,-117.053687,92027
21277,Citrus Av & Bear Valley Pkwy,33.13673,-117.041563,92027
21278,Hwy 78 & Old San Pasqual Rd,33.102711,-117.036606,92025
21280,Hwy 76 & Adams Dr,33.340235,-117.012254,92061
21281,Hwy 76 & Pauma Reservation Rd,33.329219,-117.000611,92061
21282,Hwy 76 & Cole Grade Rd,33.318523,-116.992722,92061
21283,Hwy 78 & Horizon View Dr,33.07422,-116.902831,92065
21284,Hwy 78 & Cedar St,33.054502,-116.871477,92065
21285,Hwy 78 & Olive St,33.048091,-116.871206,92065
21286,Broadway & Sherman Pl,33.12412,-117.082687,92025
21291,Basilone Rd & San Juan St,33.394164,-117.514206,92055
21292,Las Pulgas Rd & Bldg 43260 (Gas Station),33.341259,-117.410716,92055
21309,Coast Hwy & Oceanside Blvd,33.183462,-117.368994,92054
21311,Coast Hwy & Morse St,33.177699,-117.364126,92054
21317,Mesa Dr & Crouch St,33.20579,-117.353534,92054
21319,9th St & Vandegrift Bl,33.295451,-117.353472,92055
21324,10th St & Bldg 22114,33.294037,-117.350224,92055
21334,Pio Pico Dr & Chestnut Av,33.15774,-117.338986,92008
21335,Fireside St & Heritage St,33.22519,-117.33811,92058
21337,Fireside St & Los Arbolitos Bl,33.228467,-117.337078,92058
21343,Carlsbad Bl & Solamar Dr,33.120136,-117.326429,92011
21352,El Camino Real & Hosp Way,33.17396,-117.32414,92010
21353,Santa Margarita & Forrestal Rd,33.334045,-117.327648,92055
21355,Avenida De Anita & Flower Fields Way,33.176976,-117.322547,92010
21356,Douglas Dr & N River Rd,33.244819,-117.322409,92057
21357,Avenida De Anita & Via Vera,33.173398,-117.320575,92010
21358,Rancho Del Oro Dr & San Ramon Dr,33.222116,-117.320107,92057
21359,Rancho Del Oro Dr & Via Rancho Rd,33.218974,-117.318992,92057
21365,Vandegrift Bl & Mcx Rd,33.301722,-117.312599,92055
21366,Hwy 101 & La Costa Av,33.08117,-117.307742,92024
21368,Rancho Del Oro Rd & Tournament Dr,33.186495,-117.308907,92056
21372,Vandegrift Bl & Barnett Cir,33.284951,-117.301963,92055
21373,Hwy 101 & El Portal St,33.057017,-117.298357,92024
21374,Vandegrift Bl & Castellano Way,33.265256,-117.297255,92057
21375,Vandegrift Bl & Douglas Dr,33.274107,-117.29594,92057
21378,Vulcan Av & J St,33.038565,-117.291542,92024
21380,Thunder Dr & Waring Rd,33.187257,-117.288183,92056
21381,Thunder Dr & College Bl,33.198835,-117.288095,92056
21382,Thunder Dr & Westwood Rd,33.192486,-117.288108,92056
21384,Thunder Dr & Jonathon St,33.196779,-117.2881,92056
21385,Saxony Rd & Leucadia Bl,33.064703,-117.285099,92024
21394,Yarrow Dr & Corte Dela Pina,33.122305,-117.273676,92011
21395,El Camino Real & La Costa Av,33.084905,-117.268139,92009
21396,Camino Del Mar & 13th St,32.957426,-117.264349,92014
21399,Camino Del Mar & Del Mar Heights Rd,32.947888,-117.260722,92014
21401,Stevens Av & Genevieve St,32.989169,-117.260412,92075
21402,El Camino Real & 317,33.054702,-117.261649,92024
21403,El Camino Real & Santa Fe Dr,33.039112,-117.259169,92024
21406,Melrose Dr & Melrose Pl,33.209778,-117.255237,92083
21407,Melrose Dr & Cocapah St,33.207175,-117.254534,92083
21409,Melrose Dr & County Complex,33.189719,-117.253735,92081
21415,N Santa Fe Av & Taylor St,33.229487,-117.248145,92084
21419,N Santa Fe Av & Cananea St,33.217088,-117.244747,92084
21421,Melrose Dr & Shadowridge Dr,33.160931,-117.24171,92081
21424,Hwy 76 & North River Rd,33.267735,-117.236613,92003
21426,Rancho Santa Fe Rd & El Camino Del Norte,33.05029,-117.233108,92024
21428,S Mission Rd & Baja Mission Rd,33.312572,-117.229836,92028
21429,E Vista Way & Oak Dr,33.212989,-117.228578,92084
21430,E Vista Way & Strawberry Hill Ln,33.244177,-117.22671,92084
21431,E Vista Way & Foothill Dr,33.218497,-117.225985,92084
21432,S Mission Rd & Hwy 76,33.295362,-117.222986,92028
21438,Rancho Santa Fe Rd & Descanso Av,33.148212,-117.199109,92078
21444,Broadway & Sundance MHP,33.158724,-117.092432,92026
21445,Quince St & Washington Av,33.125275,-117.092201,92025
21446,Escondido Bl & Mission Av,33.128597,-117.089046,92025
21450,Escondido Bl & 2nd Av,33.11884,-117.083087,92025
21453,Escondido Bl & 15th Av,33.10766,-117.075166,92025
21455,Pala Mission Rd & Temecula Rd,33.365286,-117.074888,92059
21457,Sunset Dr & Escondido Bl,33.101188,-117.070214,92025
21464,Hwy 76 & Rhonda Ln,33.335066,-117.004643,92061
21465,Hwy 76 & Pauma Reservation Rd,33.328755,-117.000051,92061
21466,Hwy 76 & Cole Grade Rd,33.31919,-116.99295,92061
21467,Hwy 78 & Cedar St,33.054702,-116.871331,92065
21468,Hwy 78 & Olive St,33.048122,-116.871046,92065
21471,Basilone Rd & Naval Hosp Clinic,33.392107,-117.50977,92055
21472,Basilone Rd & Bldg 53372 (Horno Em Club),33.378956,-117.481622,92055
21473,Basilone Rd & Bldg 53505 (Horno),33.376925,-117.477142,92055
21474,Stuart Mesa & Mitchell,33.251479,-117.404352,92058
21475,Stuart Mesa & Bloom,33.249859,-117.403355,92058
21477,Santa Fe Av & 5th St,33.216731,-117.39291,92055
21478,Santa Fe Av & Nautilus St,33.212681,-117.390804,92058
21480,Stuart Mesa & Vandegrift Bl,33.233466,-117.389591,92055
21483,Coast Hwy & Surfrider Way,33.199551,-117.382482,92054
21489,Coast Hwy & Mission Av,33.196274,-117.37974,92054
21491,Coast Hwy & Michigan Av,33.193094,-117.377053,92054
21494,Coast Hwy & Washington Av,33.190989,-117.375264,92054
21496,Coast Hwy & Wisconsin Av,33.188996,-117.373587,92054
21497,Coast Hwy & West St,33.186977,-117.371962,92054
21504,Coast Hwy & Cassidy St,33.175557,-117.362352,92054
21505,Coast Hwy & Vista Way,33.172727,-117.359968,92054
21510,Carlsbad Bl & Oak Av,33.156618,-117.350627,92008
21511,Carlsbad Bl & Chestnut Av,33.152607,-117.34912,92008
21515,Carlsbad Bl & Tamarack Av,33.147967,-117.345584,92008
21516,Harding St & Oak Av,33.161096,-117.343807,92008
21517,Harding St & Pine Av,33.159934,-117.342872,92008
21520,Pio Pico Dr & Magnolia Av,33.155368,-117.337728,92008
21523,Carlsbad Bl & Cannon Rd,33.132921,-117.335637,92008
21525,Monroe St & Hosp Way,33.171174,-117.334607,92008
21527,Monroe St & Ave Of Trees,33.169508,-117.333817,92008
21528,Carlsbad Bl & Cerezo Dr,33.128843,-117.332786,92008
21529,El Camino Real & Mesa Dr,33.208924,-117.333302,92057
21531,El Camino Real & Oceanside Bl,33.202231,-117.332418,92056
21532,El Camino Real & Vista Oceana,33.216723,-117.33221,92057
21534,El Camino Real & Mission Av,33.227388,-117.33095,92058
21535,Monroe St & Gayle Way,33.165303,-117.328717,92008
21536,El Camino Real & Skyline Dr,33.193603,-117.327851,92056
21537,El Camino Real & Camino Town,33.185428,-117.327838,92056
21538,Monroe St & Chestnut Av,33.162414,-117.326845,92008
21539,El Camino Real & Marron Rd,33.178511,-117.326592,92010
21540,Douglas Dr & Mission Av,33.229438,-117.325971,92058
21541,Douglas Dr & El Camino Real,33.232251,-117.324985,92058
21544,Santa Margarita Rd & Vandegrift Bl,33.322904,-117.325729,92055
21545,El Camino Real & Carlsbad Village Dr,33.172277,-117.322752,92010
21546,Avenida De Anita & Avenida De Louisa,33.175359,-117.322503,92010
21547,Douglas Dr & Pala Rd,33.238448,-117.322461,92058
21548,Avenida De Anita & Calle Susana,33.174685,-117.321105,92010
21549,El Camino Real & Chestnut Av,33.164751,-117.319948,92010
21551,Carlsbad Bl & Poinsettia Ln,33.102303,-117.318179,92011
21554,Sequoia & Farrari,33.347386,-117.319209,92058
21558,El Camino Real & Tamarack Av,33.154523,-117.313223,92010
21560,Rancho Del Oro Rd & Vista Way Village Dr,33.183346,-117.311001,92056
21561,El Camino Real & Kelly Dr,33.152865,-117.310396,92010
21563,Vandegrift Bl & 14th St,33.308243,-117.311202,92055
21566,Rancho Del Oro Rd & Del Oro Homes,33.189771,-117.308179,92056
21568,Hwy 101 & Grandview St,33.075865,-117.305915,92024
21569,Vandegrift Bl & 16th St (14 Area),33.313706,-117.309697,92055
21571,Vandegrift Bl & Base Stables,33.290171,-117.307736,92055
21574,Hwy 101 & Phoebe St,33.069306,-117.303672,92024
21577,Hwy 101 & Leucadia Blvd,33.065251,-117.302395,92024
21585,N River Rd & College Blvd,33.251793,-117.299844,92057
21592,Vandegrift Bl & Gold Dr,33.258424,-117.298583,92057
21593,Vandergrift Blvd & Parker St,33.261889,-117.297926,92057
21599,College Blvd & Adams St,33.249516,-117.295619,92057
21600,Hwy 101 & H St,33.040973,-117.293065,92024
21601,Hwy 101 & K St,33.036021,-117.291784,92007
21603,College Blvd & Via Cupeno,33.247362,-117.291383,92057
21604,El Camino Real & Rancho Carlsbad Dr,33.146948,-117.289971,92010
21606,Thunder Dr & Vista Way,33.184839,-117.28819,92056
21607,Saxony Rd & Seacrest Way,33.051949,-117.285529,92024
21608,Saxony Rd & Silver Berry Pl,33.056028,-117.285411,92024
21609,Saxony Rd & Puebla St,33.061455,-117.28523,92024
21614,Emerald Dr & Silver Fox Ln,33.203969,-117.279449,92083
21615,Emerald Dr & Borra Ct,33.201114,-117.279448,92083
21622,Yarrow Dr & Camino Vida Roble,33.120151,-117.273579,92011
21623,Hwy 101 & Lomas Santa Fe Dr,32.992676,-117.271706,92075
21626,Hwy 101 & Via De La Valle,32.980897,-117.26899,92075
21627,Camino Del Mar & 29th St,32.972405,-117.268375,92014
21628,El Camino Real & Costa Del Mar Rd,33.089723,-117.269242,92009
21629,Camino Del Mar & 24th St,32.96891,-117.267619,92014
21632,El Camino Real & Arenal Rd,33.094306,-117.267716,92009
21634,El Camino Real & Carlsbad Water District,33.131973,-117.268641,92010
21635,El Camino Real & Dove Ln,33.105539,-117.266899,92009
21636,Camino Del Mar & 15th St,32.960084,-117.265178,92014
21637,El Camino Real & Alga Rd,33.102772,-117.266395,92009
21638,El Camino Real & Levante St,33.078829,-117.265471,92009
21639,Camino Del Mar & 9th St,32.95391,-117.263045,92014
21640,El Camino Real & Garden View Rd (501),33.059126,-117.262543,92024
21641,Stevens Av & Academy Dr,32.991333,-117.261312,92075
21642,El Camino Real & Olivenhain Rd,33.068167,-117.262008,92009
21643,El Camino Real & Mountain Vista Dr,33.052145,-117.260777,92024
21644,El Camino Real & Encinitas Bl,33.047681,-117.259423,92024
21645,Stevens Av & Valley Av,32.983545,-117.258628,92075
21650,Melrose Dr & W Los Angeles Dr,33.211869,-117.255605,92083
21652,Melrose Dr & Olive Av,33.205161,-117.254083,92083
21653,Melrose Dr & Sunset Dr,33.178132,-117.253544,92081
21654,Melrose Dr & Las Palmas Dr,33.186503,-117.25329,92081
21655,Melrose Dr & Branding Iron Dr,33.182409,-117.252302,92081
21658,N Santa Fe Av & Paseo Marguerita,33.232065,-117.249394,92084
21660,Melrose Dr & Buena Vista Dr,33.167561,-117.247417,92081
21661,S Mission Rd & Pepper Tree Ln,33.363267,-117.249101,92028
21663,N Torrey Pines Rd & Torrey Pines Golf Course,32.905431,-117.243229,92121
21664,N Santa Fe Av & Angeles Vista Dr,33.225471,-117.246434,92084
21665,N Torrey Pines Rd & Science Park Rd,32.902044,-117.242567,92121
21666,Melrose Dr & Live Oak Rd,33.165129,-117.245739,92081
21667,N Santa Fe Av & Orange St,33.205173,-117.244849,92084
21670,N Santa Fe Av & Townsite Dr,33.211724,-117.244797,92084
21671,N Santa Fe Av & East Dr,33.214268,-117.244787,92084
21672,N Santa Fe Av & Bobier Dr,33.220087,-117.244728,92084
21674,N Santa Fe Av & Vista Village Dr,33.202943,-117.244079,92084
21675,Melrose Dr & Dawson Dr,33.150573,-117.242028,92081
21676,Melrose Dr & Green Oak Rd,33.155441,-117.241509,92081
21677,Melrose Dr & Sycamore Av,33.145931,-117.240992,92081
21678,Rancho Santa Fe Rd & Calle Barcelona,33.072451,-117.241928,92009
21679,Rancho Santa Fe Rd & Encinitas Bl,33.037511,-117.238454,92024
21680,S Mission Rd & Big Oak Ranch Rd,33.33976,-117.238748,92028
21681,Rancho Santa Fe Rd & Olive Crest Dr,33.058182,-117.236043,92024
21683,S Mission Rd & Via Encinos Dr,33.328955,-117.236006,92028
21684,S Mission Rd & Green Canyon Rd,33.333566,-117.235901,92028
21686,Anza Av & Bobier Dr,33.219836,-117.233592,92084
21687,S Mission Rd & Hellers Bend (North),33.324182,-117.235026,92028
21688,Anza Av & Monterey Ln,33.22164,-117.232572,92084
21691,E Vista Way & Hutchison St,33.251215,-117.230728,92084
21692,E Vista Way & Gopher Canyon Rd,33.247448,-117.228043,92084
21693,S Mission Rd & La Canada Rd,33.309276,-117.228253,92028
21694,E Vista Way & Arcadia Av,33.225191,-117.226019,92084
21695,E Vista Way & Serra Dr,33.230803,-117.226052,92084
21696,E Vista Way & Osborne St,33.23943,-117.226132,92084
21697,Rancho Santa Fe Rd & La Costa Meadows Dr,33.105091,-117.224937,92009
21699,Hwy 76 & Camino Del Rey,33.28926,-117.225254,92003
21701,La Mirada Dr & Coral St,33.150706,-117.223043,92081
21703,Sycamore Av & Hibiscus Av,33.161485,-117.219186,92081
21704,Rancho Santa Fe Rd & Camino Del Arroyo,33.122054,-117.218632,92078
21705,La Mirada Dr & Ash St,33.149363,-117.219131,92081
21707,Rancho Santa Fe Rd & Lake San Marcos Dr,33.127139,-117.212923,92078
21709,Rancho Santa Fe & San Marcos Blvd,33.13188,-117.207772,92078
21711,Rancho Santa Fe Rd & Linda Vista Dr,33.14054,-117.202991,92078
21712,Rancho Santa Fe Rd & Cherokee St,33.144836,-117.200812,92078
21713,Rancho Santa Fe Rd & Grand Av,33.146368,-117.200072,92078
21716,Rancho Minerva Middle School,33.20343,-117.20498,92084
21717,Vale Terrace Dr & Alta Mesa Dr,33.206689,-117.214417,92084
21720,North Santa Fe Av & Vista Vilage Dr,33.204022,-117.244969,92083
21723,Valley Pkwy & Citracado Pkwy,33.097098,-117.111007,92029
21724,Valley Pkwy & Vermel Av,33.0996,-117.108406,92029
21727,Rock Springs Rd & Mission Av,33.12724,-117.097572,92025
21728,Morning View Dr & Lincoln Av,33.132785,-117.094625,92026
21730,Broadway & Vista Av,33.154162,-117.091669,92026
21732,Broadway & Sheridan Av,33.143656,-117.09001,92026
21733,Broadway & El Norte Pkwy,33.140432,-117.089484,92026
21734,Escondido Bl & Washington Av,33.126417,-117.088134,92025
21736,Broadway & Lincoln Av,33.134267,-117.086904,92026
21737,Broadway & Mission Av,33.130915,-117.08541,92025
21739,Broadway & Park Av,33.12904,-117.084677,92025
21748,Escondido Bl & 6th Av,33.116108,-117.081157,92025
21749,Escondido Bl & 9th Av,33.113213,-117.079105,92025
21754,Escondido Bl & 13th Av,33.10986,-117.076735,92025
21758,Escondido Bl & Felicita Av,33.105229,-117.073393,92025
21766,Pala Mission Rd & Temecula Rd,33.365156,-117.072053,92059
21773,Bear Valley Pkwy & Mary Ln (San Pasqual HS),33.07715,-117.057368,92025
21774,Bear Valley Pkwy & Peet Ln,33.085837,-117.056958,92025
21777,Midway Dr & Mission Av,33.144316,-117.056046,92027
21779,Midway Dr & 460,33.139018,-117.052508,92027
21780,Citrus Av & Bear Valley Pkwy,33.138626,-117.042664,92027
21784,Valley Center Rd & Woods Valley Rd,33.206321,-117.033271,92082
21785,Hwy 76 & Adams Dr,33.340651,-117.012982,92059
21786,Hwy 78 & Horizon View Dr,33.07523,-116.902692,92065
21794,Oceanside Bl & Macdonald St,33.199141,-117.347618,92054
21795,Mesa Dr & Wilcox St,33.210275,-117.34132,92054
21796,Oceanside Blvd & El Camino Real,33.201865,-117.334587,92054
21797,El Camino Real & Coco Palms Dr (Trico MHP),33.229582,-117.328344,92058
21798,Carlsbad Village Dr & Pontiac Dr,33.171522,-117.313487,92010
21799,Carlsbad Village Dr & Pontiac Dr,33.171863,-117.313041,92010
21801,Barnard Dr & MiraCosta College,33.18904,-117.3005,92056
21803,Encinitas Bl & Town & Country,33.046764,-117.281782,92024
21804,Oceanside Blvd & St Margarets Church,33.210254,-117.278657,92056
21806,Oceanside Blvd & Catalina Cir,33.219413,-117.264372,92056
21807,Oceanside Blvd & Catalina Cir,33.219139,-117.264053,92056
21810,Via De La Valle & 2705,32.980491,-117.249682,92014
21811,W Vista Way & Melrose Plaza,33.196094,-117.252344,92083
21812,Bobier Dr & Heidi Cir,33.221242,-117.240933,92084
21813,Via De La Valle & El Camino Real (N),32.983359,-117.225006,92014
21814,S Santa Fe Av & 1275,33.187777,-117.225668,92083
21815,S Santa Fe Av & Mar Vista Dr (1411),33.184252,-117.222618,92083
21816,S Santa Fe Av & 2511,33.163824,-117.205415,92083
21825,Mission Av & Gamble St,33.131804,-117.080359,92025
21828,Valley Pkwy & Imperial Escondido MHP,33.140049,-117.046697,92027
21829,Valley Pkwy & Citrus Av (Ralphs),33.141382,-117.043042,92027
21831,Glenridge Rd & Vulcan Pl,33.128965,-117.039131,92027
21832,Valley Center Rd & Miller Rd,33.231057,-117.032929,92082
21833,Valley Center Rd & Mirar De Valle Rd,33.21088,-117.033679,92082
21834,Valley Center Rd & Valley Center Plaza,33.217364,-117.033679,92082
21835,Valley Center Rd & Cole Grade Rd,33.231258,-117.026336,92082
21836,Valley Center Rd & Irish Oaks Rd (29779),33.22827,-117.011234,92082
21837,Valley Center Rd & Rock Hill Ranch Rd,33.228328,-117.006247,92082
21838,Valley Center Rd & Sunset Rd,33.228303,-116.98138,92082
21839,Valley Center Rd & Kolb Rd,33.247043,-116.963696,92082
21840,Valley Center Rd & Morningstar Ln,33.248918,-116.963453,92082
21843,Valley Center Rd & Boucher Heights Rd,33.256039,-116.959327,92082
21844,Valley Center Rd & Golsh Rd,33.277455,-116.953759,92082
21845,Valley Center Rd & South Resort Dr (Harrah's),33.265617,-116.953915,92082
21846,Valley Center Rd & Arviso Rd,33.270169,-116.953864,92082
21847,Valley Center Rd & Tribal Rd,33.272782,-116.953776,92082
21848,Hwy 78 & Across From Turnout,33.087979,-116.937454,92025
21852,Vandegrift Bl & Building 22831,33.287668,-117.371183,92055
21853,Oceanside Bl & Coast Hwy,33.184039,-117.368724,92054
21854,Oceanside Blvd & I-5,33.189469,-117.363506,92054
21855,Vandegrift Bl & 7th St,33.294332,-117.357808,92055
21857,Oceanside Blvd & Crouch St,33.19439,-117.35441,92054
21858,11th St & Vandegrift Bl,33.298137,-117.346299,92055
21864,Oceanside Blvd & Rancho Del Oro Dr,33.203201,-117.31195,92056
21865,MiraCosta College,33.192362,-117.303695,92056
21866,Oceanside Blvd & Corporate Centre Dr,33.203696,-117.30591,92056
21867,Waring Rd & Camarillo Av,33.186608,-117.29412,92056
21870,Saxony Rd & Saxony Pl,33.053697,-117.285478,92024
21871,W Vista Way & Cedar Rd,33.186253,-117.283402,92083
21872,Oceanside Bl & Arroyo Av,33.208744,-117.280885,92056
21874,Oceanside Blvd & Beverly Glen Dr,33.212933,-117.274952,92056
21876,Encinitas Bl & Beechtree Dr,33.046164,-117.262098,92024
21879,Bobier Dr & Kiva Ln,33.221252,-117.243394,92084
21881,Park Center Dr & 1335,33.140367,-117.238832,92081
21883,S Santa Fe Av & 1011,33.192354,-117.230662,92083
21884,S Santa Fe Av & Monte Vista Dr (1069),33.190941,-117.228282,92083
21885,Vale Terrace Dr & Brengle Terrace Pk,33.206129,-117.219354,92084
21886,Via De La Valle & Las Palomas,32.994258,-117.212169,92091
21889,Mission Rd & Knoll Rd,33.145072,-117.172851,92069
21891,Mission Rd & Mission Hills Ct,33.143883,-117.144753,92069
21893,Country Club Ln & Montego Av,33.157363,-117.103364,92026
21895,Valley Pkwy & Ivy St,33.125124,-117.077339,92025
21896,Sunset Dr & Royal Crest Dr,33.09698,-117.063925,92025
21897,Valley Pkwy & Eastwood Meadows MHP,33.142608,-117.041154,92027
21898,Glenridge Rd & Vulcan Pl,33.128763,-117.03921,92027
21899,Valley Center Rd & Irish Oaks Rd,33.228141,-117.010713,92082
21900,Hwy 78 & San Pasqual School,33.08896,-116.979231,92025
21901,Valley Center Rd & Sunset Rd,33.228159,-116.981322,92082
21902,Hwy 78 & FAH Medical Station,33.089845,-116.975963,92025
21904,Valley Center Rd & S Paradise Creek Ln,33.244892,-116.963817,92082
21907,Valley Center Rd & South Resort Dr (Harrah's),33.266185,-116.953658,92082
21908,Valley Center Rd & McCormick Rd,33.270915,-116.95361,92082
21909,Valley Center Rd & Mazzetti Ln,33.277369,-116.953585,92082
21910,Valley Center Rd & Tribal Rd,33.273732,-116.953595,92082
21911,Hwy 78 & San Pasqual Academy,33.090456,-116.948499,92025
21912,Hwy 78 & Mountain View Church,33.061941,-116.871653,92065
21917,Stuart Mesa & Donald Cook Rd,33.257162,-117.421532,92055
21926,Coast Hwy & Eaton St,33.170442,-117.358041,92054
21927,Carlsbad Bl & Cypress Av,33.161687,-117.353992,92008
21930,Marron Rd & Monroe St,33.176656,-117.338715,92008
21932,Marron Rd & Monroe St (Sears),33.177361,-117.334131,92008
21934,Hwy 101 & Bishops Gate Rd,33.078665,-117.307162,92024
21935,Barnard Dr & Glaser Dr (Miracosta College),33.191186,-117.304352,92056
21936,Barnard Dr & MiraCosta Theatre,33.187995,-117.301944,92056
21938,Hwy 101 & A St,33.05046,-117.294651,92024
21940,Yarrow Dr & 6231,33.121754,-117.273849,92011
21942,N Santa Fe Av & Guajome Park,33.240795,-117.273677,92056
21943,El Camino Real & Cassia Rd,33.113479,-117.27179,92011
21944,El Camino Real & La Costa Towne Ctr,33.081363,-117.266621,92009
21946,El Camino Real & Pointsettia Ln,33.107811,-117.268685,92011
21947,El Camino Real & Campus Point,33.132231,-117.26935,92008
21948,El Camino Real & Costa Del Mar Rd,33.089014,-117.269481,92011
21949,El Camino Real & Garden View Rd,33.058042,-117.262894,92024
21950,El Camino Real & Camino Encinitas Plaza (318),33.05439,-117.261931,92024
21952,Melrose Dr & Oceanside Blvd,33.220196,-117.258808,92056
21954,Via De La Valle & San Andres Dr,32.980963,-117.24889,92014
21955,S Mission Rd & Clemmens Ln,33.368661,-117.25065,92028
21957,Park Center Dr & 1330,33.140785,-117.238695,92081
21958,Bobier Dr & Heidi Cir,33.221429,-117.238715,92084
21959,S Santa Fe Av & Monte Vista Dr (1070),33.19093,-117.22787,92084
21960,Foothill Dr & E Vista Way,33.217377,-117.224258,92084
21961,Via De La Valle & Caminito Porta Delgada,32.983942,-117.220454,92014
21962,Vale Terrace & 1229,33.208444,-117.222566,92084
21963,Shadowridge Dr & Watson Way (780),33.166417,-117.221367,92081
21964,Vale Terrace Dr & Brengle Terrace Pk,33.206565,-117.21969,92084
21965,S Santa Fe Av & Azalea Dr,33.167919,-117.205842,92084
21966,S Santa Fe Av & Poinsettia Av (2430),33.164854,-117.205217,92084
21968,Mission Rd & San Marcos Senior Ctr,33.143039,-117.163683,92069
21969,Mission Rd & Mission Hills HS,33.143287,-117.142538,92069
21971,Mission Rd & Enterprise St (1564),33.126812,-117.113707,92029
21972,Country Club Ln & Montego Av,33.157576,-117.103497,92026
21975,Midway Dr & Valley Pkwy,33.139201,-117.052748,92027
21976,Hwy 76 & Agua Tibia Ranch,33.354988,-117.031689,92059
21977,Hwy 76 & Grassy Meadow Rd,33.322362,-116.995557,92061
21978,Hwy 78 & SD Archaeological Ctr,33.088649,-116.98153,92027
21979,Hwy 76 & Lazy H Ranch Restaurant,33.290053,-116.96728,92061
21980,Hwy 78 & San Pasqual Academy,33.090646,-116.950499,92027
21981,Hwy 78 & Turnout (18990 Hwy 78),33.088798,-116.937454,92027
21985,Stuart Mesa & Edson Range,33.25865,-117.414291,92055
21986,Santa Fe Av & Del Mar Gate,33.208473,-117.390526,92055
21996,Mesa Dr & Hoover St,33.204339,-117.35036,92054
21997,El Camino Real & Villa Mesa,33.210792,-117.333279,92057
22000,Vista Way & 3330 (Auto Club),33.180764,-117.314723,92056
22002,El Camino Real & W Ranch St,33.15178,-117.303926,92010
22004,Vista Way & Tri-City Medical Center,33.183933,-117.290909,92056
22005,Santa Fe Dr & Scripps Hospital,33.036355,-117.284125,92024
22006,N Santa Fe Av & Alamosa Park Dr,33.24325,-117.278633,92056
22007,Hwy 101 & Solana Beach City Hall,32.983562,-117.269925,92075
22008,El Camino Real & La Costa Towne Ctr,33.082216,-117.26668,92009
22009,San Rodolfo Dr & Plaza West,32.994151,-117.259783,92075
22013,Park Center Dr & 1280 (Watkins),33.142678,-117.236222,92081
22014,Park Center Dr & Avenida Chelsea,33.143326,-117.233729,92081
22015,Hwy 76 & Via Montellano,33.275783,-117.233435,92003
22016,Vale Terrace Dr & Ponderosa Dr,33.209047,-117.227645,92084
22017,Rancho Santa Fe Rd & Security Pl,33.134486,-117.206446,92078
22018,Del Dios Hwy & Via Cuatro Caminos,33.034924,-117.17552,92067
22020,CSUSM Craven Circle,33.128589,-117.160085,92096
22022,Country Club Ln & Abby Ln,33.15669,-117.123431,92026
22023,Mission Rd & Andreasen Dr,33.124651,-117.107935,92029
22025,Morning View Dr & Morning View Ter,33.140367,-117.09725,92026
22028,Morning View Dr & Riverwalk Apts,33.138184,-117.096519,92026
22032,Hwy 76 & Fox Raceway,33.363925,-117.059467,92059
22033,Hwy 76 & Agua Tibia Ranch,33.355071,-117.031466,92059
22034,Hwy 78 & Cloverdale Rd,33.097688,-117.021368,92027
22035,Hwy 76 & 14970,33.338216,-117.007011,92061
22036,San Diego Safari Park (Inside gate),33.09995,-117.001837,92027
22037,Hwy 76 & Roberts Ranch,33.322463,-116.995361,92061
22038,Hwy 76 & Pauma Valley Dr,33.303435,-116.978338,92061
22039,Hwy 78 & FAH Medical Station,33.089934,-116.976199,92027
22040,Hwy 76 & Pauma Valley Community Ctr,33.29343,-116.969173,92061
22042,Hwy 78 & Ash St,33.060483,-116.871437,92065
22043,Basilone Rd & Bldg 53346 (Phone Ctr),33.377173,-117.479138,92055
22049,Basilone Rd & Bldg 52540,33.393852,-117.513825,92055
22050,Basilone Rd & Vicinity Bldg 520593,33.391911,-117.509787,92055
22051,Basilone Rd & Horno Em Club,33.378722,-117.481583,92055
22053,Stuart Mesa & Las Flores,33.288321,-117.440953,92055
22054,Edson Range & Bldg 31498,33.256626,-117.420701,92055
22055,Main Gate & Edson Range,33.258627,-117.414885,92055
22056,Brown St & Opp 43532 (Las Pulgas),33.349781,-117.412686,92055
22058,Brown St & Bldg 43410,33.347265,-117.411467,92055
22059,Brown St & Henderson,33.344261,-117.410752,92055
22061,Monroe St & Ave Of Trees,33.169634,-117.334104,92008
22063,Santa Margarita & Forrestal Rd,33.333585,-117.327735,92055
22064,Santa Margarita & Lake O'Neill,33.325236,-117.325921,92055
22065,Vandegrift Bl & Base Stables,33.289193,-117.30674,92055
22066,El Camino Real & Cannon Rd,33.149055,-117.296461,92008
22067,Vandegrift Bl & San Luis Rey Gate,33.279748,-117.298792,92055
22069,N Torrey Pines Rd & Torrey Pines State Beach,32.935521,-117.260572,92014
22070,Stevens Av & Nardo Av (La Colonia Park),32.985903,-117.260068,92075
22071,Stevens Av & Valley Av,32.983674,-117.259043,92075
22073,N Torrey Pines Rd & State Beach Reserve,32.929042,-117.259684,92121
22074,Melrose Dr & Cannon Rd (Ralphs),33.173425,-117.253305,92056
22076,La Mirada Dr & Poinsettia Av,33.148236,-117.216337,92081
22079,Escondido Bl & Washington Av,33.125087,-117.087664,92025
22081,Coast Hwy & Morse St,33.178545,-117.365123,92054
22082,Douglas Dr & Country Villas Apts,33.233061,-117.324869,92058
22084,Vandegrift Bl & 13 St,33.304893,-117.312065,92055
22087,Hwy 101 & Cardiff Beach,33.013007,-117.27985,92007
22088,Stevens Av & San Rodolfo Dr,32.993286,-117.262108,92075
22089,Stevens Av & Academy Dr,32.991042,-117.261434,92075
22090,Stevens Av & Genevieve St,32.989089,-117.260619,92075
22091,Valley Av & Waterford Dr,32.981163,-117.257948,92075
22093,Melrose Dr & Shadowridge Meadows Apts,33.169329,-117.250768,92056
22094,N Torrey Pines Rd & NU System Drwy,32.910339,-117.244715,92037
22096,Oak Dr & 1506 (MHP),33.221288,-117.221881,92084
22097,S Santa Fe Av & Bosstick Bl (2907),33.159148,-117.203274,92069
22098,Valley Pkwy & Citracado Pkwy,33.097473,-117.111124,92029
22103,Carlsbad Bl & Army Navy Academy,33.161804,-117.353767,92008
22104,Santa Margarita & Base Hospital,33.341459,-117.328749,92055
22106,Hwy 101 & Cardiff Beach,33.013181,-117.279598,92007
22112,S Mission Rd & Fairbrook Farms (4949),33.301283,-117.226025,92028
22118,Broadway & 1160,33.137208,-117.088235,92026
22122,Basilone Rd & Bldg 53332,33.377349,-117.479442,92055
22123,Las Flores & Bldg 41398,33.28857,-117.441369,92055
22128,Vandegrift Bl & Commissary,33.227132,-117.391738,92055
22129,Coast Hwy & Las Salinas MHP,33.180164,-117.366229,92054
22130,11th St & E Av,33.298248,-117.34614,92055
22132,Santa Margarita Rd & Lake O'Neill Rd,33.325782,-117.325761,92055
22134,Vandegrift Bl & 13th St (Main Px),33.30355,-117.311999,92055
22135,Vandegrift Bl & 14th St,33.306026,-117.311663,92055
22138,Sunset Dr & Sky Haven Ln,33.184461,-117.279093,92081
22139,Hwy 101 & Cliff St,32.997116,-117.273332,92075
22142,Stevens Av & Nardo Av,32.986323,-117.259833,92075
22143,Valley Av & Highland Dr,32.980329,-117.257325,92075
22145,Melrose Dr & 1510 (Sr Heights Apt),33.16877,-117.249273,92081
22147,La Mirada Dr & Poinsettia Av,33.148192,-117.215754,92081
22150,Hale Av & Parkdale Apts,33.11123,-117.107743,92029
22151,9th Av & Windsor Pl,33.111446,-117.10556,92029
22152,Carlsbad Village Dr & Highland Dr,33.165869,-117.338123,92008
22153,Mission Av & 3671 (Paul's Place),33.223968,-117.332984,92058
22156,Sunset Dr & Escondido Bl,33.100961,-117.070012,92025
22157,E Vista Way & Monte Mar Rd,33.219177,-117.226274,92084
22162,Oceanside Blvd & El Camino Real W,33.201688,-117.333673,92054
22165,Stuart Mesa & Las Pulgas Rd (Scout Camp),33.300161,-117.45607,92055
22166,Las Flores & Boy Scout Camp,33.299999,-117.456105,92055
22168,Hwy 101 & Chesterfield Dr,33.020264,-117.282886,92007
22169,Encinitas Bl & Vulcan Av,33.048751,-117.2932,92024
22171,Hwy 101 & Chesterfield Dr,33.01856,-117.282219,92007
22172,Plaza St & Highway 101,32.991703,-117.272093,92075
22193,Carlsbad Poinsettia Station,33.109718,-117.319024,92011
22198,Mission Rd & Aberdeen Av,33.145906,-117.177638,92069
22199,Mission Rd & Aberdeen Av,33.146227,-117.178445,92069
22201,Stuart Mesa & Yamanaka,33.25526,-117.407895,92058
22203,Stuart Mesa & Yamanaka,33.255137,-117.407961,92058
22205,El Camino Real & Town Center Dr,33.063906,-117.262384,92024
22206,El Camino Real & Camino Colony Apts,33.204915,-117.333729,92054
22210,Sycamore Av & Sycamore Hills Apts,33.159124,-117.221703,92081
22211,Park Center Dr & Avenida Chelsea,33.143179,-117.233668,92081
22212,Melrose Dr & County Complex,33.190924,-117.254088,92081
22220,Valley Pkwy & La Terraza Bl,33.116059,-117.097622,92025
22349,Vista Rey & Vista Bella,33.218362,-117.331296,92057
22350,Hwy 78 & Zoo Rd,33.095782,-117.009065,92027
22351,Hwy 78 & Bandy Canyon Rd,33.091416,-116.953967,92025
22352,Hwy 78 & Zoo Rd,33.095967,-117.009048,92027
22353,Valley Pkwy & Juniper St,33.123853,-117.079793,92025
22360,Melrose Dr & Hacienda Dr,33.191785,-117.253865,92081
22361,Poinsettia Av & Business Park Dr,33.134777,-117.228662,92081
22362,Melrose Dr & Hacienda Dr,33.192818,-117.253353,92081
22363,Poinsettia Av & Business Park Dr,33.134574,-117.228618,92081
22364,Sky Haven Ln & Sundown Ln,33.180699,-117.280029,92056
22371,El Camino Real & Garden View Rd (499),33.057641,-117.262482,92024
22372,El Camino Real & Tobria Ter,33.11609,-117.270552,92011
22375,Rancho Santa Fe Rd & 7th St,33.043442,-117.235284,92024
22376,Rancho Santa Fe Rd & Calle Acervo,33.060702,-117.239538,92009
22378,Camino De Los Coches & Maverick Way,33.075303,-117.231857,92009
22381,Camino De Los Coches & Stagecoach Park,33.075042,-117.232674,92009
22382,Rancho Santa Fe Rd & Avenida La Posta,33.060592,-117.239628,92009
22383,Rancho Santa Fe Rd & Ranch View Ter,33.043788,-117.235394,92024
22384,Mission Av & Rock Springs Rd,33.126626,-117.097037,92025
22385,Mission Av & Rock Springs Rd,33.126582,-117.097821,92025
22386,Mission Rd & Falcon Pl (456),33.1442,-117.153266,92069
22387,Las Posas Rd & Descanso Av,33.145649,-117.190504,92069
22403,Vista Village Dr & Main St,33.204013,-117.239197,92084
22404,Valley Pkwy & Avenida Del Diablo,33.102848,-117.105576,92029
22407,9th Av & Windsor Pl,33.111561,-117.105361,92029
22408,Hale Av & Casa Grande MHP,33.109907,-117.108705,92029
22415,Loker Av West & 2788,33.131993,-117.25489,92010
22416,Loker Av West & 2731,33.134288,-117.25779,92010
22417,Loker Av West & Palomar Airport Rd,33.131525,-117.259623,92010
22418,Priestly Dr & Faraday Bl,33.134745,-117.275876,92008
22419,Priestly Dr & Rutherford Rd,33.133597,-117.274151,92008
22420,Rutherford Rd & Pascal Ct,33.132243,-117.275476,92008
22421,Rutherford Rd & Geiger Ct,33.131706,-117.279844,92008
22422,Rutherford Rd & Farnsworth Ct,33.131697,-117.282599,92008
22423,Aston Av & College Bl,33.132394,-117.288907,92008
22426,Aston Av & College Bl,33.132213,-117.288887,92008
22427,Rutherford Rd & Farnsworth Ct,33.131479,-117.282405,92008
22428,Rutherford Rd & Geiger Ct,33.131546,-117.279818,92008
22429,Rutherford Rd & Pascal Ct,33.13221,-117.274875,92008
22430,Priestly Dr & Rutherford Rd,33.133816,-117.274137,92008
22431,Priestly Dr & Faraday Av,33.134422,-117.275078,92008
22432,Thunder Dr & Jonathon St,33.196197,-117.288264,92056
22442,Carlsbad Bl & Avenida Encinas,33.092002,-117.313826,92011
22443,Carlsbad Bl & Island Way,33.11217,-117.322454,92011
22446,Carlsbad Bl & Island Way,33.111837,-117.322831,92011
22449,Carlsbad Bl & Avenida Encinas,33.091826,-117.314365,92011
22461,Rancho Santa Fe Rd & Olivenhain Rd,33.067176,-117.24555,92009
22465,Lincoln Av & Goldenrod St,33.146852,-117.05996,92027
22466,Lincoln Av & Daisy St,33.145313,-117.062521,92027
22467,Lincoln Av & Rose St,33.142998,-117.066387,92027
22468,Lincoln Av & Rose St,33.143528,-117.065226,92027
22469,Lincoln Av & Begonia St,33.145075,-117.062656,92027
22470,Lincoln Av & Goldenrod St,33.147112,-117.059224,92027
22475,N Torrey Pines Rd & NU System Drwy,32.910518,-117.244322,92121
22476,Jefferson St & Vista Way,33.182945,-117.339798,92054
22477,El Camino Real & Calle Barcelona,33.073704,-117.262544,92009
22479,Douglas Dr & Vandegrift Bl,33.273407,-117.296831,92057
22480,Douglas Dr & Pilgrim Way,33.271552,-117.301959,92057
22481,Douglas Dr & Via Cibola,33.265579,-117.306893,92057
22482,Douglas Dr & Catalina Dr,33.256447,-117.31376,92057
22484,Douglas Dr & Festival Dr,33.253011,-117.318086,92057
22485,Douglas Dr & Point Degada,33.249961,-117.322785,92058
22486,Douglas Dr & Westport Dr,33.247147,-117.322751,92058
22487,El Camino Real & Calle Barcelona,33.072752,-117.262754,92009
22488,El Camino Real & Leucadia Bl,33.067083,-117.262512,92024
22489,Stuart Mesa & Ortiz,33.256353,-117.410261,92058
22491,Morning View Dr & El Norte Pkwy,33.142758,-117.096625,92026
22496,Mission Av & Parish Way,33.230753,-117.316012,92057
22499,Town Center North & Walmart,33.241762,-117.292888,92057
22503,Palomar Airport Rd & Paseo Del Norte,33.121884,-117.318374,92011
22504,Palomar Airport Rd & Armada Dr,33.121823,-117.313099,92011
22506,Palomar Airport Rd & Hidden Valley Rd,33.123494,-117.305511,92011
22507,Aston Av & Rutherford Rd,33.131968,-117.284651,92008
22508,Palomar Airport Rd & Aviara Pkwy,33.123884,-117.301077,92011
22509,Palomar Airport Rd & Palomar Oaks Way,33.120083,-117.289975,92011
22511,Palomar Airport Rd & El Camino Real (East),33.129818,-117.264758,92009
22515,Palomar Airport Rd & White Sands Dr,33.131353,-117.227485,92078
22516,San Marcos Bl & Acacia Dr,33.132148,-117.219504,92078
22517,San Marcos Bl & Viewpoint Dr,33.132761,-117.212083,92078
22518,San Marcos Bl & Rancho Santa Fe Rd,33.131886,-117.209907,92078
22519,San Marcos Bl & Knights Realm,33.131221,-117.204194,92078
22520,San Marcos Bl & Discovery St,33.131377,-117.200484,92078
22521,Las Posas Rd & San Marcos Bl,33.13447,-117.194289,92078
22522,Las Posas Rd & Linda Vista Dr,33.137808,-117.194115,92078
22524,Las Posas Rd & La Mirada Dr,33.139777,-117.193394,92078
22525,Las Posas Rd & Linda Vista Dr,33.1369,-117.194846,92078
22526,Las Posas Rd & San Marcos Bl,33.134398,-117.194516,92078
22527,San Marcos Bl & Pacific St,33.132405,-117.19748,92078
22528,San Marcos Bl & Discovery St,33.131499,-117.201817,92078
22529,San Marcos Bl & Knights Realm,33.13149,-117.204497,92078
22530,San Marcos Bl & Rancho Santa Fe Rd,33.132241,-117.209999,92078
22531,San Marcos Bl & Viewpoint Dr,33.133184,-117.21292,92078
22532,San Marcos Bl & Avenida Cielo,33.132793,-117.217514,92078
22533,Palomar Airport Rd & Business Park Dr,33.13132,-117.230187,92010
22534,Palomar Airport Rd & Melrose Dr,33.13031,-117.247145,92010
22538,Palomar Airport Rd & Loker Av West,33.130702,-117.260005,92010
22539,Faraday Av & El Camino Real,33.136054,-117.274745,92008
22540,Aston Av & Rutherford Rd,33.131974,-117.284951,92008
22542,Palomar Airport Rd & Camino Vida Roble,33.120173,-117.282373,92008
22543,Palomar Airport Rd & Palomar Oaks Way,33.120808,-117.290866,92008
22544,Palomar Airport Rd & College Bl,33.124304,-117.302128,92008
22545,Palomar Airport Rd & The Crossings Dr,33.123461,-117.306785,92008
22548,Avenida Encinas & Palomar Airport Rd,33.120638,-117.324847,92011
22549,Avenida Encinas & 6200 (Opp Sewage Treatment),33.11649,-117.322256,92011
22550,Palomar Airport Rd & Melrose Dr,33.129842,-117.244313,92009
22551,Palomar Airport Rd & Paseo Valindo,33.128781,-117.237538,92009
22552,Palomar Airport Rd & Eagle Dr,33.128969,-117.238572,92010
22556,Douglas Dr & Pala Rd,33.237604,-117.322812,92058
22557,Mission Av & Frontier Dr,33.219554,-117.339708,92058
22558,Mission Av & Frontier Dr,33.219919,-117.33875,92058
22560,N Santa Fe Av & California Av,33.207931,-117.24483,92084
22561,N Santa Fe Av & Melrose Dr (2465),33.234709,-117.253186,92084
22563,Hwy 76 & Via Montellano,33.275436,-117.234289,92003
22564,N Santa Fe Av & Mesa Dr,33.241282,-117.275239,92056
22565,N Santa Fe Av & Melrose Dr,33.235687,-117.260764,92084
22568,Mission Av & Francesca Dr,33.231311,-117.302571,92057
22574,College Bl & Salk Av,33.140656,-117.283681,92008
22575,Vulcan Av & G St,33.042742,-117.292251,92024
22589,Auto Park Way & Alpine Way,33.12519,-117.119055,92029
22591,Avenida Ricardo & Knob Hill Park,33.137579,-117.12076,92069
22599,Valley Pkwy & Pennsylvania Av,33.126693,-117.075022,92025
22600,El Camino Real & Faraday Av,33.135797,-117.272762,92008
22601,Loker Av West & El Fuerte St (2796),33.131501,-117.253132,92010
22608,Grand Av & Ash St,33.126836,-117.06655,92025
22609,Broadway & Hwy 78,33.132262,-117.086272,92025
22620,S Mission Rd & Air Park Rd,33.352893,-117.246182,92028
22622,E Vista Way & Barsby St,33.234727,-117.226105,92084
22623,S Mission Rd & Stage Coach Ln,33.349844,-117.24433,92028
22624,S Mission Rd & Sterling Br,33.352497,-117.245582,92028
22629,College Bl & Salk Av,33.140096,-117.283917,92008
22631,Douglas Dr & N River Rd,33.245953,-117.322586,92058
22632,Douglas Dr & Point Degada,33.250127,-117.322644,92058
22633,Douglas Dr & Festival Dr,33.253238,-117.317621,92057
22635,Douglas Dr & Catalina Dr,33.25715,-117.312575,92057
22636,Douglas Dr & Via Cibola,33.266214,-117.306619,92057
22637,Douglas Dr & Via Malaguena,33.271357,-117.301983,92057
22638,Seagaze Dr & Ditmar St,33.195803,-117.377397,92054
22641,Via Rancho Rd & Sabadell Dr,33.220589,-117.31462,92057
22642,Via Rancho Rd & Ivey Ranch Rd,33.220281,-117.309689,92057
22647,Old Grove Rd & Red Maple Way,33.234926,-117.308435,92057
22648,Frazee Rd & Montrose Way,33.24069,-117.300616,92057
22649,Frazee Rd & Mission Av,33.237743,-117.296831,92057
22650,College Blvd & Silver Bluff Dr,33.238933,-117.291608,92057
22651,Frazee Rd & Oleander Dr,33.241148,-117.301407,92057
22652,Frazee Rd & Pala Rd,33.238813,-117.307452,92057
22653,Old Grove Rd & Red Maple Way,33.234458,-117.308714,92057
22658,Via Rancho Rd & Mission Gate Dr,33.220522,-117.309948,92057
22663,Mission Av & Douglas Dr,33.227985,-117.325286,92058
22664,Mission Av & Avenida Calafia,33.233814,-117.30025,92057
22665,Mission Av & Frazee Rd,33.237383,-117.296435,92057
22666,Mission Av & Frazee Rd,33.237317,-117.296755,92057
22667,Mission Av & Avenida Calafia,33.233736,-117.300521,92057
22668,Mission Av & Peyri Dr,33.230403,-117.319361,92058
22689,Midway Dr & E Valley Pkwy,33.136907,-117.0513,92027
22691,El Norte Pkwy & Kaile Ln,33.150185,-117.03828,92027
22695,Washington Av & Midway Dr,33.141323,-117.054267,92027
22696,Washington Av & Begonia St,33.139109,-117.058004,92027
22697,Washington Av & Harding St,33.134756,-117.065069,92027
22698,Washington Av & Rose St,33.137521,-117.060439,92027
22699,Washington Av & Begonia St,33.139119,-117.057739,92027
22703,El Norte Pkwy & Washington Av,33.150272,-117.043485,92027
22704,Valley Pkwy & Wanek Rd,33.145766,-117.036023,92027
22706,El Norte Pkwy & Conway Dr,33.14576,-117.074371,92027
22707,El Norte Pkwy & Ash St,33.143661,-117.07865,92026
22708,El Norte Pkwy & Ivy St,33.140917,-117.086222,92026
22710,Ash St & Montros Pl,33.13764,-117.071469,92027
22711,Midway Dr & Oak Hill Dr,33.130662,-117.047424,92027
22712,Lincoln Av & Awana Glen,33.140077,-117.071306,92027
22713,Fig St & Lincoln Av (Kenwood Townhomes),33.134793,-117.078126,92026
22714,Escondido Bl & El Norte Pkwy,33.138682,-117.092626,92026
22715,Escondido Bl & Decatur Way,33.136139,-117.092585,92026
22716,Escondido Blvd & Lincoln Av,33.131609,-117.090565,92026
22717,Valley Pkwy & Elm St,33.127957,-117.072262,92025
22718,Valley Pkwy & Harding St,33.132184,-117.063021,92027
22719,Valley Pkwy & Rose St,33.133981,-117.059212,92027
22724,Main St & 11th St,33.04145,-116.869776,92065
22725,Main St & 14th St,33.038474,-116.87522,92065
22726,Day St & Main St,33.035742,-116.881188,92065
22727,Main St & 11th St,33.040831,-116.870443,92065
22740,Midway Dr & Oak Hill Dr,33.13149,-117.047801,92027
22741,Valley Pkwy & Rose St,33.133935,-117.059805,92027
22742,Valley Pkwy & Harding St,33.131905,-117.064193,92027
22743,Valley Pkwy & Elm St,33.127835,-117.072968,92025
22750,Vandegrift Bl & Bldg 14117 (19th St),33.317659,-117.308884,92055
22751,Vandegrift Bl & Wire Mountain Rd,33.216782,-117.38862,92055
22752,Valley Pkwy & Avenida Del Diablo,33.102395,-117.105414,92029
22756,Main St & Montecito Rd,33.03715,-116.877244,92065
22757,Main St & Day St,33.034787,-116.881293,92065
22758,Auto Park Way & Mission Rd,33.12947,-117.122962,92029
22759,Avenida Ricardo & Center Dr,33.137022,-117.121476,92069
22763,Valley Pkwy & 9th Av,33.109449,-117.103938,92029
22764,Main St & Montecito Rd,33.037392,-116.877197,92065
22765,Frazee Rd & Pala Rd,33.238766,-117.307152,92057
22768,Carlsbad Bl & Ponto Rd,33.098936,-117.316791,92011
22769,Carlsbad Bl & Breakwater Rd,33.106465,-117.320131,92011
22771,Carlsbad Blvd & Beach Tower 32,33.141388,-117.340708,92008
22772,Mesa Dr & Mission Av,33.20817,-117.358425,92054
22773,Barnes St & Mission Av,33.201342,-117.366281,92054
22774,Barnes St & Maxson St,33.19992,-117.365873,92054
22775,Barnes St & Maxson St,33.200046,-117.365723,92054
22776,Barnes St & Mission Av,33.201719,-117.366384,92054
22777,Mission Av & 1863,33.203451,-117.365414,92058
22779,S Mission Rd & Winterhaven Rd,33.346162,-117.242078,92028
22780,S Mission Rd & Almond St,33.366458,-117.249855,92028
22781,Vandegrift Bl & Papagallo Rd,33.278368,-117.297846,92057
22782,Vandegrift Bl & Basilone Rd,33.305904,-117.342511,92055
22783,Pala Casino,33.363909,-117.085958,92059
22784,Pala Mission Rd & Portillo Rd,33.364849,-117.084286,92059
22785,Pala Mission Rd & Mission St,33.365163,-117.074917,92059
22786,Pala Mission Rd & Temecula Rd,33.365073,-117.072192,92059
22787,Main St & 14th St,33.038898,-116.873925,92065
22788,Hwy 78 & Bandy Canyon Rd,33.091706,-116.954069,92027
22790,Old Grove Rd & Frazee Rd,33.236877,-117.309002,92057
22791,Old Grove Rd & Frazee Rd,33.236542,-117.309095,92057
22792,Mission Av & Valley Heights Dr,33.232307,-117.300988,92057
22793,S Mission Rd & Fairbrook Farms (4949),33.30238,-117.226493,92028
22794,Valley Pkwy & Target,33.113994,-117.100979,92029
22795,Valley Pkwy & Home Depot Center,33.10892,-117.10456,92029
22796,Marron Rd & El Camino Real (2375),33.177246,-117.328369,92008
22805,Olivenhain Rd & Camino Alvaro,33.068474,-117.246815,92009
22806,Olivenhain Rd & Amargosa Dr,33.067198,-117.255818,92009
22807,Olivenhain Rd & El Camino Real,33.067666,-117.261065,92009
22815,Harding St & Carlsbad Village Dr,33.162461,-117.344931,92008
22821,Highland Dr & Tamarack Av,33.155674,-117.330918,92008
22822,Highland Dr & Tamarack Av,33.155813,-117.331167,92008
22828,Armada Dr & Fleet St North,33.131301,-117.317518,92008
22829,Armada Dr & Fleet St North,33.13102,-117.318319,92008
22830,Armada Dr & Fleet St South,33.125876,-117.316154,92008
22831,Armada Dr & Fleet St South,33.125575,-117.316151,92008
22832,Avenida Encinas & 6200,33.117052,-117.322299,92011
22833,Leucadia Bl & Sidonia St,33.065148,-117.280077,92024
22834,Leucadia Bl & Sidonia St,33.06528,-117.28143,92024
22835,Leucadia Bl & Town Center Pl,33.067714,-117.264256,92024
22836,Leucadia Bl & Town Center Pl,33.068174,-117.265344,92024
22837,Olivenhain Rd & El Camino Real,33.067398,-117.261548,92024
22838,Olivenhain Rd & Amargosa Dr,33.066954,-117.255525,92024
22839,Santa Fe Dr & Mackinnon Av,33.036198,-117.275802,92007
22840,Santa Fe Dr & Balour Dr,33.03618,-117.268672,92007
22842,Santa Fe Dr & Monterey Vista Way,33.036342,-117.26749,92024
22843,Santa Fe Dr & Bonita Dr,33.036344,-117.274094,92024
22844,Santa Fe Dr & Gardena Rd,33.036361,-117.279664,92024
22875,Emerald Dr & West Dr,33.191068,-117.279448,92083
22876,Emerald Dr & West Dr,33.190904,-117.279629,92083
22877,Emerald Dr & Promanade Pl,33.194471,-117.27941,92083
22895,San Marcos Bl & Via Vera Cruz,33.134766,-117.188566,92078
22896,San Marcos Bl & Bent Av (844),33.136158,-117.183335,92078
22905,Carlsbad Village Dr & Highland Dr (E),33.1665,-117.337297,92008
22906,Emerald Dr & Lewis St,33.195836,-117.279586,92083
22911,San Marcos Bl & Pacific St,33.132387,-117.196579,92078
22914,Las Posas Rd & Grand Av,33.143343,-117.191219,92078
22915,Las Posas Rd & Grand Av,33.142559,-117.192,92078
22916,San Marcos Bl & Avenida De Las Rosas,33.132187,-117.221119,92078
22917,Palomar Airport Rd & Armada Dr,33.122129,-117.311744,92008
22920,Auto Park Wy & Ross Dr,33.126501,-117.121538,92029
22921,Auto Park Wy & Ross Dr,33.126712,-117.121481,92029
22922,Rancho Santa Fe Rd & O.M.W.D.,33.067261,-117.245288,92009
22923,Craven Rd & Rush Dr,33.12726,-117.167441,92078
22925,Monroe St & Carlsbad HS Stadium,33.165665,-117.329145,92008
22929,College Bl & Aston Av,33.13229,-117.289818,92008
22930,Douglas Dr & Teal Way,33.273007,-117.298309,92057
22931,College Bl & Palomar Airport Rd,33.1254,-117.301169,92008
22937,Frazee Rd & Hwy 76,33.239698,-117.298907,92057
22940,Mission Av & Rancho Del Oro Dr,33.229988,-117.319843,92058
22941,Oceanside Blvd & Melrose Dr,33.219965,-117.260478,92056
22942,Poinsettia Av & Activity Dr,33.143356,-117.217012,92081
22943,Melrose Dr & Cannon Rd,33.172207,-117.252204,92056
22947,Oceanside Blvd & Corporate Centre Dr,33.204039,-117.306104,92056
22950,San Marcos Bl & Via Vera Cruz,33.13481,-117.18725,92078
22953,Grand Av & Harding St,33.129727,-117.059822,92027
22954,Midway Dr & E Valley Pkwy,33.136569,-117.051316,92027
22955,Hwy 76 & Lazy H Dr,33.293426,-116.969381,92061
24000,Avenida De La Plata & Avenida Del Oro,33.208992,-117.293672,92056
24001,Avenida Del Oro & Avenida De La Plata,33.208342,-117.293742,92056
24002,Avenida De La Plata & Plaza Real (South),33.210492,-117.29126,92056
24004,Avenida De La Plata & College Blvd,33.213045,-117.288772,92056
24006,College Blvd & Old Grove Rd,33.217645,-117.287578,92056
24007,College Blvd & Old Grove Rd,33.216634,-117.287284,92056
24008,College Blvd & Avenida Empressa,33.222425,-117.290567,92056
24009,College Blvd & Avenida Empressa,33.221621,-117.29039,92056
24010,College Blvd & Mesa Dr,33.225554,-117.292531,92057
24011,College Blvd & Mesa Dr,33.224753,-117.292357,92056
24012,College Blvd & Frazee Rd,33.234748,-117.292492,92057
24013,College Blvd & Frazee Rd,33.236358,-117.293049,92057
24014,Oceanside Blvd & Avenida Del Oro,33.206246,-117.288844,92056
24015,College Blvd & Oceanside Blvd,33.206203,-117.285115,92056
24025,El Norte Pkwy & Ash St,33.144272,-117.076867,92027
24026,El Norte Pkwy & Conway Dr,33.146322,-117.072649,92027
24027,El Norte Pkwy & Rose St,33.14746,-117.070333,92027
24028,El Norte Pkwy & Donald Way,33.149606,-117.06537,92027
24043,Marron Rd & El Camino Real (2375),33.176725,-117.329447,92008
24044,Carlsbad Village Dr & Tamarack Av,33.167402,-117.299764,92010
24045,Carlsbad Village Dr & Glasgow Dr,33.167908,-117.298028,92010
24046,College Bl & Carlsbad Village Dr,33.168717,-117.295062,92010
24047,College Bl & Tamarack Av (South),33.17112,-117.292987,92010
24048,College Bl & Tamarack Av (North),33.174322,-117.291863,92010
24049,Lake Bl & College Bl,33.178743,-117.293021,92056
24050,College Blvd & Marron Rd,33.177895,-117.293994,92056
24051,College Bl & Tamarack Av (North),33.173311,-117.29245,92010
24052,College Bl & Tamarack Av (South),33.17029,-117.293988,92010
24053,Carlsbad Village Dr & College Bl,33.168225,-117.296356,92010
24054,Carlsbad Village Dr & Harwich Dr,33.167808,-117.299261,92010
24074,Highland Dr & Magnolia St,33.157211,-117.331888,92008
24075,Highland Dr & Magnolia St,33.157177,-117.332028,92008
24083,Craven Dr & Twin Oaks Valley Rd,33.127229,-117.164466,92096
24084,Las Posas Rd & Los Vallecitos Bl,33.146162,-117.189849,92069
24086,Citrus Av & Valley Pkwy,33.140317,-117.043945,92027
24087,Carlsbad Bl & Breakwater Rd,33.104952,-117.31967,92011
24088,Rancho Santa Fe Rd & Camino Junipero,33.087897,-117.225504,92009
24089,Rancho Santa Fe Rd & Camino Junipero,33.087094,-117.226341,92009
24107,Faraday Av & Cannon Rd,33.138721,-117.306688,92008
24108,Faraday Av & 1525,33.13652,-117.295019,92008
24109,Faraday Av & 1620,33.139201,-117.293152,92008
24110,Faraday Av & Newton Dr (1675),33.137964,-117.290677,92008
24114,Faraday Av & College Bl,33.135799,-117.286211,92008
24115,Faraday Av & Newton Dr,33.138399,-117.290812,92008
24116,Faraday Av & 1610,33.139359,-117.293187,92008
24117,Faraday Av & 1530,33.136637,-117.295255,92008
24118,Faraday Av & Whitman Way,33.13835,-117.306008,92008
24127,Camino Vida Roble & Palomar Airport Rd (East),33.119728,-117.281652,92011
24128,Camino Vida Roble & Corte Del Nogal,33.118356,-117.279909,92011
24129,Camino Vida Roble & Las Palmas Dr,33.117866,-117.276832,92011
24130,Camino Vida Roble & Corte Del Abeto,33.11827,-117.276337,92011
24131,El Camino Real & ViaSat West Campus,33.126995,-117.266189,92011
24135,Loker Av West & Palomar Airport Rd,33.131297,-117.259392,92010
24136,Loker Av West & 2748,33.134132,-117.257448,92010
24137,Loker Av West & 2765,33.132734,-117.255626,92010
24138,Loker Av West & El Fuerte St (2793),33.131353,-117.253258,92010
24144,Rancho Santa Fe Rd & Camino De Los Coches,33.075847,-117.239426,92009
24145,Rancho Santa Fe Rd & San Elijo Rd,33.100607,-117.221783,92009
24146,Rancho Santa Fe Rd & Melrose Dr,33.108482,-117.225181,92078
24147,Rancho Santa Fe Rd & Meadowlark Ranch Rd,33.109318,-117.225569,92078
24148,Rancho Santa Fe Rd & Camino De Los Coches,33.075267,-117.239959,92009
24150,Scholars Dr South & Revelle College Dr,32.872517,-117.241402,92093
24151,Scholars Dr South & Revelle College Dr,32.872662,-117.241527,92093
24153,San Rodolfo Dr & Stevens Av,32.993949,-117.260273,92075
24156,Douglas Dr & Teal Way,33.272878,-117.299554,92057
24157,El Camino Real & Poinsettia Ln,33.110028,-117.269944,92009
24158,El Camino Real & College Bl,33.14353,-117.283698,92010
24159,El Camino Real & Social Security Office,33.188559,-117.328103,92056
24161,Mission Rd & Mission Hills HS,33.142669,-117.14193,92069
24162,Hwy 101 & Dahlia Dr,32.987918,-117.270621,92075
24165,Sycamore Av & Grand Av,33.155138,-117.224656,92081
24166,Business Park & Scott St,33.139898,-117.230228,92081
24167,Poinsettia Av & Corporate View,33.13514,-117.225061,92081
24173,Melrose Dr & Park Center Dr,33.140861,-117.244055,92081
24178,Robelini Dr & El Valle Opulento,33.173144,-117.209994,92083
24188,Foothill Dr & E Vista Way,33.217253,-117.224919,92084
24189,Oak Dr & Foothill Dr,33.216761,-117.221769,92084
24190,Oak Dr & Monte Mar Rd,33.219653,-117.221776,92084
24191,Oak Dr & Palomar Pl,33.222797,-117.221771,92084
24193,Bobier Dr & Marabou Ln,33.221348,-117.253283,92083
24194,Bobier Dr & Marabou Ln,33.221114,-117.253281,92083
24195,Ivey Ranch Rd & Justina Dr,33.21722,-117.310555,92057
24196,Rancho Del Oro Dr & Mesa Dr,33.214166,-117.317768,92056
24198,Rancho Del Oro Dr & El Corazon Dr,33.209221,-117.312831,92056
24199,Rancho Del Oro Dr & Seagate Way (North),33.207433,-117.311556,92056
24200,Ocean Ranch Blvd & Corporate Centre Dr,33.212386,-117.303722,92056
24201,Corporate Center & Ocean Ranch Blvd,33.212251,-117.303325,92056
24202,Corporate Centre Dr & Ocean Ranch Blvd,33.211728,-117.302779,92056
24204,Corporate Centre & Oceanic Dr,33.20606,-117.305136,92056
24206,Marron Rd & Quarry Creek Center,33.177866,-117.296982,92056
24207,Tamarack Av & Polly Ln,33.154571,-117.331354,92008
24211,El Camino Real Station,33.200011,-117.332188,92054
24213,Rancho Del Oro Station,33.202362,-117.311316,92056
24246,Old Grove Rd & Ocean Ranch Bl,33.218627,-117.296537,92056
24247,Avenida Del Oro & Old Grove Rd,33.216235,-117.294072,92056
24248,Avenida Del Oro & US Post Office,33.211612,-117.295047,92056
24276,Sycamore Av & University Dr,33.170449,-117.212195,92083
24279,Via Rancho Rd & Rancho Del Oro,33.219718,-117.318129,92057
24280,Mission Rd & Barham Ln,33.131378,-117.12434,92029
24327,Rancho Del Oro Rd & Via Rancho Rd,33.220161,-117.319168,92057
24329,Avenida Del Oro & Windansea St,33.21411,-117.294054,92056
24330,Lake Bl & Esplanade St,33.179768,-117.290772,92056
24331,North Av & Melrose Dr,33.215516,-117.255271,92083
24334,Mission Av & Quince St,33.127833,-117.094016,92025
24335,Rancho Santa Fe Rd & San Elijo Rd,33.099415,-117.222113,92009
24336,El Norte Pkwy & E Valley Pkwy,33.149583,-117.034484,92027
24337,Arcadia Av & Oak Dr,33.224914,-117.222428,92084
24338,Las Posas Rd & La Mirada Dr,33.14044,-117.192739,92078
24339,Valley Pkwy & Beven Rd,33.15508,-117.031834,92027
24340,Avenida Encinas & 6030,33.119856,-117.324176,92011
24341,Vista Way & Italia Way,33.181205,-117.312916,92056
24346,Oceanside Blvd & Melrose Dr,33.220592,-117.259967,92056
24349,Rancho Santa Fe Rd & Avenida Soledad,33.096322,-117.22296,92009
24350,Rancho Santa Fe Rd & Avenida Soledad,33.095937,-117.223806,92009
24351,Rancho Santa Fe Rd & Capalina Rd,33.151616,-117.197388,92069
24352,S Santa Fe Av & Buena Creek Rd,33.173172,-117.207867,92084
24353,Corporate Centre Dr & Avenida De La Plata,33.209016,-117.301872,92056
24361,Oceanside Bl & Ord Way,33.210765,-117.277619,92056
24362,Auto Park Way & Mission Rd,33.130225,-117.123164,92029
24363,Mission Rd & Bennett Av,33.136046,-117.129963,92069
24366,Longhorn Dr & Crystal Ridge Way,33.163721,-117.24987,92081
24367,2nd Av & Centre City Pkwy,33.118384,-117.085372,92025
24369,El Camino Real & Camino Vida Roble,33.120412,-117.266862,92009
24373,Mesa Dr & Rancho Del Oro,33.214706,-117.317065,92056
24375,Mesa Dr & Pacifica Way,33.218658,-117.299873,92056
24378,Cannon Rd & Grand Pacific Dr,33.134174,-117.314493,92008
24379,Cannon Rd & Grand Pacific Dr,33.134488,-117.314232,92008
24382,Barham Dr & La Moree Rd,33.134778,-117.154594,92096
24383,Valley View Casino,33.218748,-116.972844,92082
24386,Thibodo St & Thibodo Ct,33.167874,-117.218647,92081
24801,Mission Rd & Brandon Rd,33.384479,-117.243689,92028
24802,Alvarado St & Brandon Rd,33.382092,-117.245254,92028
24803,Alvarado St & 388,33.382136,-117.248197,92028
24837,S Mission Rd & Fallbrook St,33.375522,-117.253813,92028
24840,Valley Center Rd & Mirar De Valle Rd,33.21094,-117.03348,92082
24842,Valley Center Rd & Woods Valley Rd,33.20624,-117.033514,92082
24843,Grand Av & 1501 Grand Av,33.129693,-117.059648,92027
24844,Rancho Del Oro Dr & Oceanside Blvd,33.203714,-117.310938,92056
24845,S Main Av & Ammunition Rd,33.3716,-117.251211,92028
24846,Buena Creek Station,33.173356,-117.207406,92084
24847,Primrose Av & Palmyra Dr,33.17052,-117.207733,92083
24848,Mission Rd & Las Posas Rd,33.149227,-117.190013,92069
24849,Mission Rd & Val Preda Rd,33.142003,-117.157008,92069
24850,Lobelia Dr & Sycamore Av,33.169448,-117.212267,92083
24851,Ocean Ranch Blvd & Rancho Del Oro Dr,33.209801,-117.312311,92056
24853,Rancho Santa Fe Rd & La Costa Av,33.081921,-117.236265,92009
24854,Rancho Santa Fe Rd & La Costa Av,33.081143,-117.237522,92009
24855,Basilone Rd & 4th St,33.351973,-117.408421,92055
24856,Las Pulgas & C St,33.342815,-117.409613,92055
24857,Las Pulgas Rd & A St,33.345392,-117.407948,92055
24858,El Camino Real & ViaSat East Campus,33.12529,-117.266067,92009
24859,El Camino Real & Town Garden Rd,33.122767,-117.266872,92011
24861,Mission Rd & Hill Av,33.384781,-117.253286,92028
24862,San Pasqual Valley Rd & 2nd Av,33.126131,-117.065128,92025
24863,San Pasqual Valley Rd & Grand Av,33.126951,-117.065333,92027
24864,Town Center North & Vons,33.240646,-117.29217,92057
24865,Ivy St & Vine St,33.383771,-117.250672,92028
24866,Main Av & Fallbrook St,33.375822,-117.251362,92028
24867,S Main Av & Elder St,33.379742,-117.251318,92028
24868,S Mission Rd & Beech St,33.378559,-117.253742,92028
24870,Faraday Av & Rutherford Rd,33.134268,-117.283307,92008
24871,Faraday Av & 2251,33.13416,-117.278181,92008
24872,Faraday Av & 2244,33.13417,-117.278875,92008
24873,Faraday Av & Rutherford Rd,33.134466,-117.282645,92008
24876,Emerald Dr & Wildflower Ct,33.199281,-117.27943,92083
24877,Emerald Dr & Chasin St,33.19953,-117.279583,92083
24878,Seagate Way & VA Clinic,33.207163,-117.310786,92056
24881,Emerald Dr & Silverfox Ln,33.203649,-117.279605,92083
24882,Watson Way & Thibodo Rd,33.168308,-117.221681,92081
24883,Watson Way & Thibodo Rd,33.168203,-117.221851,92081
24884,Thibodo Rd & Thibodo Ct,33.16754,-117.218037,92081
24885,Thibodo Rd & Sycamore Av,33.166538,-117.217051,92081
24886,Thibodo Rd & Sycamore Av,33.166662,-117.216915,92081
24887,Del Dios Hwy & Bing Crosby Blvd,33.037745,-117.163522,92067
24888,Del Dios Hwy & Bing Crosby Blvd,33.038056,-117.162147,92067
24889,Rancho Del Oro Dr & Ocean Ranch Blvd,33.209892,-117.313056,92056
24890,Rancho Del Oro Dr & Hwy 76,33.228729,-117.318127,92057
24891,Los Arbolitos Blvd & Coconut Way,33.233148,-117.337508,92058
24893,Pala Rd & Fredricks Av,33.236153,-117.335342,92058
24895,Pala Rd & Christina Ct,33.237633,-117.329843,92058
24896,Pala Rd & Rio Vista Dr,33.237963,-117.324709,92058
24897,Pala Rd & Douglas Dr,33.238151,-117.323188,92058
24898,Pala Rd & Rio Vista Dr,33.238162,-117.32581,92058
24899,Pala Rd & School Entrance,33.238032,-117.329414,92058
24901,Pala Rd & Oakleaf Dr,33.236356,-117.334831,92058
24904,Los Arbolitos Bl & Orr St,33.233055,-117.337744,92058
24905,Townsite Dr & Santa Fe Av,33.211296,-117.244557,92084
24906,Townsite Dr & Citrus Av,33.211534,-117.242225,92084
24907,Townsite Dr & Indian Rock Rd,33.212356,-117.238402,92084
24908,Eucalyptus Av & Indiana Av,33.200766,-117.240426,92084
24911,Townsite Dr & Newport Dr,33.211085,-117.235729,92084
24912,Townsite Dr & Rhea Pl,33.212687,-117.239865,92084
24913,Townsite Dr & N Citrus Av,33.211866,-117.241909,92084
24915,Citracado Pkwy & Auto Park Wy,33.123515,-117.118517,92029
24916,Citracado Pkwy & Stone Brewing,33.115964,-117.119455,92029
24917,Citracado Pkwy & Makena Medical Center,33.11261,-117.120314,92029
24918,Andreasen Dr & 1040,33.110941,-117.118387,92029
24919,Andreasen Dr & Enterprise St,33.111701,-117.1162,92029
24920,Harmony Grove Rd & Symphony Pl,33.108986,-117.110922,92029
24922,Andreasen Dr & 1031,33.111292,-117.117878,92029
24923,Citracado Pkwy & Makena Medical Center,33.11341,-117.119796,92029
24924,Citracado Pkwy & Lupulin Ln,33.115497,-117.119166,92029
24926,El Norte Pkwy & Washington Av,33.150619,-117.044868,92027
24927,Red Blush Rd,33.149968,-117.05208,92027
24928,El Norte Pkwy & Lincoln Av,33.151561,-117.054798,92027
24929,El Norte Pkwy & Estrada Glen,33.152011,-117.057665,92027
24930,El Norte Pkwy & Midway Dr,33.150958,-117.062581,92027
24931,El Norte Pkwy & Fig St,33.142481,-117.081004,92026
24932,Broadway & Park Av,33.128006,-117.084408,92025
24933,Washington Av & Escondido Bl,33.126051,-117.086912,92025
24934,Washington Av & Quince St,33.124778,-117.090681,92025
24935,Washington Av & 245,33.125815,-117.087318,92025
24936,El Norte Pkwy & Broadway,33.139985,-117.088366,92026
24937,El Norte Pkwy & Ivy St,33.140844,-117.085612,92026
24938,El Norte Pkwy & Fig St,33.142306,-117.080889,92026
24939,El Norte Pkwy & Midway Dr,33.151205,-117.061348,92027
24940,El Norte Pkwy & La Honda Dr,33.151695,-117.056884,92027
24941,El Norte Pkwy & Lincoln Av,33.150952,-117.054233,92027
24942,Citrus Av,33.149466,-117.050936,92027
24943,Mission Av & Old Grove Market Way,33.229955,-117.311264,92057
24944,Encinitas Station Stall 3,33.045531,-117.292692,92024
24945,Encinitas Station Stall 2,33.04535,-117.29267,92024
24948,Encinitas Station Stall 5,33.045384,-117.29283,92024
24949,Encinitas Station Stall 6,33.04556,-117.292855,92024
24953,Carlsbad Village Station,33.160728,-117.351003,92008
24954,Carlsbad Village Station Stall 4,33.160922,-117.351168,92008
24955,Carlsbad Village Station Stall 5,33.161072,-117.351288,92008
24957,Citracado Pkwy & Health Center Drwy North,33.12113,-117.120097,92029
24958,Palomar Medical Center,33.121909,-117.120843,92029
24959,N Torrey Pines Rd & John J Hopkins Dr,32.897798,-117.242093,92037
24960,Midway & Washington Av,33.141812,-117.054007,92027
24963,Los Arbolitos & Orchard Way,33.231174,-117.337542,92058
24964,Los Arbolitos & Orchard Way,33.231283,-117.337775,92058
24965,Rancho Del Oro Dr & Oceanside Blvd,33.20432,-117.311419,92056
24967,Valley Pkwy & Claudan Rd,33.095627,-117.112071,92029
24968,Valley Pkwy & Claudan Rd,33.095308,-117.111926,92029
24969,Midway Dr & E. Grand Ave,33.13503,-117.050107,92027
24970,E. Grand Av & Rose St,33.13074,-117.057587,92027
24971,Hwy 76 & Pala Transfer Station,33.363844,-117.05983,92059
24974,Bear Valley Pkwy & Oak Hill Dr,33.132255,-117.045067,92027
24978,Vista Way & Italia Way,33.180613,-117.313576,92056
24979,Casino Pauma,33.329271,-116.991986,92061
24981,Avenida De La Plata & Across from Genentech,33.208415,-117.299027,92056
24982,Del Dios Hwy & Toyon Canyon Rd,33.061003,-117.124631,92029
24983,Del Dios Hwy & Mt Israel Rd,33.06325,-117.124086,92029
24986,Citracado Pkwy & Scenic Trail Way,33.096657,-117.102904,92029
24987,Cannon Rd & El Camino Real,33.150345,-117.296894,92010
24988,College Bl & Cannon Rd,33.155699,-117.2875,92010
24989,El Camino Real & Palomar Airport Rd,33.130174,-117.266918,92010
24991,Cannon Rd & College Bl,33.154678,-117.287806,92010
24992,Naval Hospital Camp Pendleton,33.220387,-117.389374,92055
24993,Arcadia Av & E Vista Way,33.224831,-117.225273,92084
24995,College Blvd & Silver Bluff Dr,33.23972,-117.290342,92057
24996,Mission Rd & Marcos St,33.144734,-117.170597,92069
24997,Olive Av & Plymouth Dr,33.204832,-117.250966,92083
24998,Eucalyptus Av & Crescent Dr,33.198155,-117.227352,92084
25002,San Luis Rey Transit Center  Stall 2,33.254522,-117.298539,92057
25003,San Luis Rey Transit Center  Stall 3,33.25451,-117.298316,92057
25004,San Luis Rey Transit Center  Stall 4,33.254495,-117.298094,92057
25005,San Luis Rey Transit Center  Stall 5,33.254478,-117.297881,92057
25008,San Luis Rey Transit Center  Stall 8,33.254333,-117.298049,92057
25009,San Luis Rey Transit Center  Stall 9,33.254348,-117.298272,92057
25010,San Luis Rey Transit Center  Stall 10,33.254363,-117.298481,92057
25013,El Camino  Real & Lisa St,33.151434,-117.303655,92008
25014,Andreasen Dr & Enterprise St,33.111957,-117.116227,92029
25016,Hwy 76 & Magee Rd,33.363774,-117.057136,92059
25038,Rancho Santa Fe Rd & Via Mercato,33.083845,-117.23069,92009
25040,Rancho Santa Fe Rd & Paseo Lupino,33.084017,-117.232013,92009
25042,Mission Av & Roymar Rd,33.215452,-117.345107,92058
25043,Vandegrift Bl & Granite Pl,33.269758,-117.296463,92057
25044,Carlsbad Blvd & Ponto Rd,33.09872,-117.317103,92011
25045,Faraday Av & Van Allen Way,33.136728,-117.288647,92008
25046,Melrose Dr & Breeze Hill Rd,33.187079,-117.253665,92081
25047,Poinsettia Av & W Linda Vista Dr,33.144499,-117.216064,92078
25048,El Camino Real FS Cannon,33.149894,-117.297966,92010
25049,El Camino Real & Cassia Rd,33.114615,-117.271131,92009
25050,College Blvd & Faraday Av,33.135561,-117.285602,92008
25051,Rancho Del Oro Dr & Seagate Way (South),33.205844,-117.311398,92056
25053,Avenida De La Plata & Avenida De Oro,33.208634,-117.295056,92056
25054,Lebon Dr & La Jolla Village Dr,32.870621,-117.223926,92122
25055,S Santa Fe Av & Broadway,33.200655,-117.242669,92084
25056,Santa Fe Ave & Broadway,33.200402,-117.242762,92083
25057,Rancho Santa Fe & 9th St,33.144944,-117.201126,92078
25058,Lebon Dr & Nobel Dr,32.868777,-117.224714,92122
25059,Broadway & Mission Av,33.129977,-117.085316,92025
25060,N Santa Fe Ave & Adobe Estates Dr,33.228659,-117.247849,92083
25062,Campus Way Circle,33.13109,-117.15839,92096
25063,Rush Dr & Craven Rd,33.12773,-117.16778,92078
25064,Discovery St & Rush Dr,33.13164,-117.16622,92078
25066,San Marcos Blvd & Tiger Way,33.14072,-117.16635,92069
25067,San Marcos Blvd & Knoll Rd,33.13917,-117.17227,92069
25068,San Marcos Blvd & Macmahr Rd,33.13319,-117.19336,92078
25070,San Marcos Blvd & Bent Ave,33.13648,-117.1811,92078
25071,San Marcos Blvd & Knoll Rd,33.13889,-117.17213,92069
25072,San Marcos Blvd & Tiger Way,33.14042,-117.16638,92069
25074,Cannon Rd & Wind Trail Wy,33.151584,-117.296118,92010
27000,Oceanside Transit Center,33.190875,-117.37835,92054
27001,Coast Hwy Station,33.181788,-117.368851,92054
27002,Crouch St Station,33.194612,-117.353514,92054
27003,El Camino Real Station,33.199656,-117.332478,92054
27004,Rancho Del Oro Station,33.201544,-117.311231,92056
27005,College Blvd Station,33.204546,-117.288143,92056
27006,Melrose Dr Station,33.219553,-117.259087,92083
27007,Vista Transit Center,33.202788,-117.244731,92083
27008,Civic Center - Vista Station,33.190535,-117.237476,92083
27009,Buena Creek Station,33.1735,-117.207393,92084
27010,Palomar College Station,33.146953,-117.185314,92069
27011,San Marcos Civic Center Station,33.142267,-117.161995,92069
27012,Cal State San Marcos Station,33.134771,-117.153585,92078
27013,Nordahl Rd Station,33.131112,-117.124154,92029
27014,Escondido Transit Center,33.118419,-117.09216,92025
27025,WEST RING RD & WEST RING RD,33.220637,-117.389979,92055
28000,Oceanside Transit Center Platform 3,33.190552,-117.378206,92054
28001,Carlsbad Village Station,33.161787,-117.351867,92008
28002,Carlsbad Poinsettia Station,33.109794,-117.319613,92011
28003,Encinitas Station,33.047927,-117.293357,92024
28004,Solana Beach Station,32.994933,-117.272046,92075
28005,Sorrento Valley Station,32.903369,-117.225677,92121
28006,San Diego - Old Town,32.755277,-117.199754,92110
28007,San Diego - Santa Fe Depot,32.71887,-117.17007,92101
28100,Oceanside Transit Center,33.18856,-117.376487,92054
28101,Carlsbad Village Station,33.160539,-117.350616,92008
28102,Carlsbad Poinsettia Station,33.107188,-117.318487,92011
28103,Encinitas Station,33.046285,-117.293125,92024
28104,Solana Beach Station,32.9922,-117.271459,92075
28105,Sorrento Valley Station,32.902257,-117.224498,92121
28106,San Diego - Old Town,32.753434,-117.199258,92110
28107,San Diego - Santa Fe Depot,32.716895,-117.170069,92101
88962,VA Hospital,32.874894,-117.233477,92161
88988,VA Hospital,32.874753,-117.233834,92093
92020,Coast Hwy & Civic Center Dr,33.197516,-117.380767,92054
92021,Plaza Camino Real,33.178328,-117.336914,92008
92022,Plaza Camino Real Transit Center Stall 2,33.178329,-117.336735,92008
92023,Plaza Camino Real Transit Center Stall 3,33.178331,-117.336539,92008
92024,Plaza Camino Real Transit Center Stall 4,33.178327,-117.336372,92008
92025,Plaza Camino Real Transit Center Stall 5,33.178334,-117.336185,92008
92026,Plaza Camino Real Transit Center Stall 6,33.178264,-117.336283,92008
92027,Plaza Camino Real Transit Center Stall 7,33.178279,-117.336482,92008
92029,Vista Transit Center Stall 4,33.202954,-117.245093,92083
92030,Vista Transit Center Stall 5,33.203141,-117.245194,92083
92031,Vista Transit Center Stall 6,33.203246,-117.245283,92083
92032,Vista Transit Center Stall 7,33.203375,-117.245383,92083
92033,Vista Transit Center Stall 8,33.203523,-117.245451,92083
92034,Vista Transit Center Stall 9,33.2037,-117.245532,92083
92036,Vista Transit Center Stall 10,33.203828,-117.245593,92083
92037,Palomar College Transit Center Stall 1,33.147694,-117.185682,92069
92038,Palomar College Transit Center Stall 2,33.147747,-117.18589,92069
92039,Palomar College Transit Center Stall 3,33.147802,-117.186092,92069
92040,Palomar College Transit Center Stall 4,33.147913,-117.185931,92069
92041,Palomar College Transit Center Stall 5,33.14785,-117.185732,92069
92044,Escondido Transit Center Stall 4,33.118741,-117.090442,92025
92045,Escondido Transit Center Stall 5,33.118669,-117.090621,92025
92046,Escondido Transit Center Stall 6,33.118711,-117.090915,92025
92047,Escondido Transit Center Stall 7,33.118811,-117.091043,92025
92048,Escondido Transit Center Stall 8,33.118973,-117.091084,92025
92049,Escondido Transit Center Stall 9,33.119178,-117.090946,92025
92050,Escondido Transit Center Stall 10,33.11924,-117.090652,92025
92051,Escondido Transit Center Stall 11,33.119159,-117.0904,92025
92052,Escondido Transit Center Stall 12,33.119093,-117.090092,92025
92053,Escondido Transit Center Stall 13,33.119201,-117.089852,92025
92054,Escondido Transit Center Stall 14,33.119353,-117.089765,92025
92055,Escondido Transit Center Stall 15,33.119516,-117.089662,92025
92090,Washington Av & Ash St,33.133499,-117.067187,92027
92092,Mission Av & Broadway,33.130418,-117.084889,92025
92100,Valley Center Rd & Morningstar Rd,33.249497,-116.96319,92082
92102,Yarrow Dr & Camino Vida Roble (6351),33.120159,-117.273751,92011
92122,Westfield North County,33.071112,-117.062915,92025
92123,Westfield North County,33.072164,-117.064548,92025
92124,Oceanside Transit Center Stall 2,33.193937,-117.379857,92054
92125,Oceanside Transit Center Stall 3,33.193787,-117.379744,92054
92127,Oceanside Transit Center Stall 4,33.193624,-117.379582,92054
92128,Oceanside Transit Center Stall 5,33.193487,-117.379465,92054
92131,Oceanside Transit Center Stall 8,33.193507,-117.379675,92054
92132,Oceanside Transit Center Stall 9,33.193655,-117.379791,92054
92133,Oceanside Transit Center Stall 10,33.193802,-117.379921,92054
92200,Vandegrift Bl & A St,33.302541,-117.344963,92055
93229,Center Dr & Avenida Ricardo,33.135926,-117.121602,92069
93231,El Norte Pkwy & E Valley Pkwy,33.149833,-117.03399,92027
93234,El Camino Real & Circle K,33.087286,-117.268791,92009
93235,El Norte Pkwy & Rose St,33.148104,-117.069504,92027
93244,Ivey Ranch Rd & Justina Dr,33.217208,-117.310384,92057
93248,Mission Av & Broadway,33.130201,-117.086194,92025
93254,Rancho Santa Fe Rd & 11th St,33.052421,-117.232633,92024
93255,Rancho Santa Fe Rd & Grandon Av,33.135592,-117.205511,92078
93274,Valley Pkwy & Tulip St,33.117673,-117.093637,92025
94063,Del Lago Transit Station,33.072198,-117.070413,92029
95000,Rancho Del Oro Dr & Craven Rd,33.226374,-117.318144,92057
95035,UTC Transit Center,32.868324,-117.213439,92122
96011,El Camino Real & Encinitas Bl,33.044819,-117.259413,92024
96023,El Camino Real & Island Way,33.230611,-117.326895,92058
96030,El Camino Real & Encinitas Blvd,33.047423,-117.259778,92024
99931,Villa La Jolla Dr & La Jolla Village Dr,32.872489,-117.233946,92161
99990,College Bl & El Camino Real,33.142326,-117.283777,92008
99991,Palomar Airport Rd & El Fuerte St,33.129494,-117.251932,92009
cpsta,Carlsbad Poinsettia Station,33.10914,-117.31927,92011
cvsta,Carlsbad Village Station,33.16086,-117.35096,92008
encsta,Encinitas Station,33.045418,-117.292782,92024
esctc,Escondido Transit Center,33.118829,-117.090838,92025
octc,Oceanside Transit Center,33.193669,-117.379713,92054
oldttc,Old Town Transit Center,32.754665,-117.199654,92110
palctc,Palomar College Transit Center,33.14781,-117.18582,92069
pcrtc,Plaza Camino Real Transit Center,33.178276,-117.336525,92008
slrtc,San Luis Rey Transit Center,33.25441,-117.298129,92057
solsta,Solana Beach Station,32.992937,-117.271067,92075
svsta,Sorrento Valley Station,32.902813,-117.225088,92121
visttc,Vista Transit Center,33.20324,-117.24507,92083
144,Oceanside Metrolink Station,33.192554,-117.379875,92054
